#version,serial,flight,call,time,state,state_name,acceleration,pressure,altitude,height,speed,temperature,drogue_voltage,main_voltage,battery_voltage,accel_x,accel_y,accel_z,gyro_roll,gyro_pitch,gyro_yaw,mag_x,mag_y,mag_z,tilt,pyro,igniter_a,igniter_b,igniter_c,igniter_d,connected,locked,nsat,latitude,longitude,altitude,year,month,day,hour,minute,second,pad_dist,pad_range,pad_az,pad_el,pdop,hdop,vdop,sat01,sat02,sat03,sat04,sat05,sat06,sat07,sat08,sat09,sat10,sat11,sat12,sat13,sat14,sat15,sat16,sat17,sat18,sat19,sat20,sat21,sat22,sat23,sat24,sat25,sat26,sat27,sat28,sat29,sat30,sat31,sat32
6,6614,2,VK3TRK,-0.3,3,   boost,2.45,86465,1317.68,0,     NaN,42.5,8.43,8.4,4.1,0,0,0,0,-0.06,0,0,0,0,    NaN,8.38,8.44,8.37,0,0,1,1,11,32.9430368,-106.9145895,1389,2022,6,23,19,5,47,0,0,0,0,1.6,1,1.2,0,31,0,0,32,43,0,0,0,0,33,34,0,0,19,0,0,38,0,33,0,0,0,0,43,0,0,0,29,0,30,0
6,6614,2,VK3TRK,-0.29,3,   boost,0,86458,1318.34,0.66,     NaN,42.5,8.43,8.4,4.1,0,10.57,0,135.2,135.81,0,0,0,0,    NaN,8.38,8.44,8.37,0,0,1,1,11,32.9430368,-106.9145895,1389,2022,6,23,19,5,47,0,0,0,0,1.6,1,1.2,0,31,0,0,32,43,0,0,0,0,33,34,0,0,19,0,0,38,0,33,0,0,0,0,43,0,0,0,29,0,30,0
6,6614,2,VK3TRK,-0.28,3,   boost,-1.47,86454,1318.72,1.04,     NaN,42.5,8.43,8.4,4.1,0,10.57,0,135.2,135.81,0,0,0,0,    NaN,8.38,8.44,8.37,0,0,1,1,11,32.9430368,-106.9145895,1389,2022,6,23,19,5,47,0,0,0,0,1.6,1,1.2,0,31,0,0,32,43,0,0,0,0,33,34,0,0,19,0,0,38,0,33,0,0,0,0,43,0,0,0,29,0,30,0
6,6614,2,VK3TRK,-0.27,3,   boost,-1.96,86457,1318.44,0.76,     NaN,42.5,8.43,8.4,4.1,0,10.57,0,135.2,135.81,0,0,0,0,    NaN,8.38,8.44,8.37,0,0,1,1,11,32.9430368,-106.9145895,1389,2022,6,23,19,5,47,0,0,0,0,1.6,1,1.2,0,31,0,0,32,43,0,0,0,0,33,34,0,0,19,0,0,38,0,33,0,0,0,0,43,0,0,0,29,0,30,0
6,6614,2,VK3TRK,-0.26,3,   boost,1.96,86468,1317.39,-0.28,     NaN,42.5,8.43,8.4,4.1,0,10.57,0,135.2,135.81,0,0,0,0,    NaN,8.38,8.44,8.37,0,0,1,1,11,32.9430368,-106.9145895,1389,2022,6,23,19,5,47,0,0,0,0,1.6,1,1.2,0,31,0,0,32,43,0,0,0,0,33,34,0,0,19,0,0,38,0,33,0,0,0,0,43,0,0,0,29,0,30,0
6,6614,2,VK3TRK,-0.25,3,   boost,-2.45,86464,1317.77,0.09,     NaN,42.5,8.43,8.4,4.1,0,10.57,0,135.2,135.81,0,0,0,0,    NaN,8.38,8.44,8.37,0,0,1,1,11,32.9430368,-106.9145895,1389,2022,6,23,19,5,47,0,0,0,0,1.6,1,1.2,0,31,0,0,32,43,0,0,0,0,33,34,0,0,19,0,0,38,0,33,0,0,0,0,43,0,0,0,29,0,30,0
6,6614,2,VK3TRK,-0.24,3,   boost,0,86474,1316.83,-0.85,     NaN,42.5,8.43,8.4,4.1,0,10.57,0,135.2,135.81,0,0,0,0,    NaN,8.38,8.44,8.37,0,0,1,1,11,32.9430368,-106.9145895,1389,2022,6,23,19,5,47,0,0,0,0,1.6,1,1.2,0,31,0,0,32,43,0,0,0,0,33,34,0,0,19,0,0,38,0,33,0,0,0,0,43,0,0,0,29,0,30,0
6,6614,2,VK3TRK,-0.23,3,   boost,-0.49,86469,1317.3,-0.38,     NaN,42.5,8.43,8.4,4.1,0,10.57,0,135.2,135.81,0,0,0,0,    NaN,8.38,8.44,8.37,0,0,1,1,11,32.9430368,-106.9145895,1389,2022,6,23,19,5,47,0,0,0,0,1.6,1,1.2,0,31,0,0,32,43,0,0,0,0,33,34,0,0,19,0,0,38,0,33,0,0,0,0,43,0,0,0,29,0,30,0
6,6614,2,VK3TRK,-0.22,3,   boost,1.47,86459,1318.25,0.57,     NaN,42.5,8.43,8.4,4.1,0,10.57,0,135.2,135.81,0,0,0,0,    NaN,8.38,8.44,8.37,0,0,1,1,11,32.9430368,-106.9145895,1389,2022,6,23,19,5,47,0,0,0,0,1.6,1,1.2,0,31,0,0,32,43,0,0,0,0,33,34,0,0,19,0,0,38,0,33,0,0,0,0,43,0,0,0,29,0,30,0
6,6614,2,VK3TRK,-0.21,3,   boost,-0.98,86477,1316.54,-1.14,     NaN,42.5,8.43,8.4,4.1,0,10.57,0,135.2,135.81,0,0,0,0,    NaN,8.38,8.44,8.37,0,0,1,1,11,32.9430368,-106.9145895,1389,2022,6,23,19,5,47,0,0,0,0,1.6,1,1.2,0,31,0,0,32,43,0,0,0,0,33,34,0,0,19,0,0,38,0,33,0,0,0,0,43,0,0,0,29,0,30,0
6,6614,2,VK3TRK,-0.2,3,   boost,-3.43,86485,1315.79,-1.89,     NaN,42.5,8.43,8.4,4.1,0,10.57,0,135.2,135.81,0,0,0,0,    NaN,8.38,8.44,8.37,0,0,1,1,11,32.9430368,-106.9145895,1389,2022,6,23,19,5,47,0,0,0,0,1.6,1,1.2,0,31,0,0,32,43,0,0,0,0,33,34,0,0,19,0,0,38,0,33,0,0,0,0,43,0,0,0,29,0,30,0
6,6614,2,VK3TRK,-0.19,3,   boost,-1.96,86457,1318.44,0.76,     NaN,42.5,8.43,8.4,4.1,0,10.57,0,135.2,135.81,0,0,0,0,    NaN,8.38,8.44,8.37,0,0,1,1,11,32.9430368,-106.9145895,1389,2022,6,23,19,5,47,0,0,0,0,1.6,1,1.2,0,31,0,0,32,43,0,0,0,0,33,34,0,0,19,0,0,38,0,33,0,0,0,0,43,0,0,0,29,0,30,0
6,6614,2,VK3TRK,-0.18,3,   boost,0,86461,1318.06,0.38,     NaN,42.5,8.43,8.4,4.1,0,10.57,0,135.2,135.81,0,0,0,0,    NaN,8.38,8.44,8.37,0,0,1,1,11,32.9430368,-106.9145895,1389,2022,6,23,19,5,47,0,0,0,0,1.6,1,1.2,0,31,0,0,32,43,0,0,0,0,33,34,0,0,19,0,0,38,0,33,0,0,0,0,43,0,0,0,29,0,30,0
6,6614,2,VK3TRK,-0.17,3,   boost,-0.98,86471,1317.11,-0.57,     NaN,42.5,8.43,8.4,4.1,0,10.57,0,135.2,135.81,0,0,0,0,    NaN,8.38,8.44,8.37,0,0,1,1,11,32.9430368,-106.9145895,1389,2022,6,23,19,5,47,0,0,0,0,1.6,1,1.2,0,31,0,0,32,43,0,0,0,0,33,34,0,0,19,0,0,38,0,33,0,0,0,0,43,0,0,0,29,0,30,0
6,6614,2,VK3TRK,-0.16,3,   boost,0.98,86453,1318.81,1.14,     NaN,42.5,8.43,8.4,4.1,0,10.57,0,135.2,135.81,0,0,0,0,    NaN,8.38,8.44,8.37,0,0,1,1,11,32.9430368,-106.9145895,1389,2022,6,23,19,5,47,0,0,0,0,1.6,1,1.2,0,31,0,0,32,43,0,0,0,0,33,34,0,0,19,0,0,38,0,33,0,0,0,0,43,0,0,0,29,0,30,0
6,6614,2,VK3TRK,-0.15,3,   boost,0.49,86465,1317.68,0,     NaN,42.5,8.43,8.4,4.1,0,10.57,0,135.2,135.81,0,0,0,0,    NaN,8.38,8.44,8.37,0,0,1,1,11,32.9430368,-106.9145895,1389,2022,6,23,19,5,47,0,0,0,0,1.6,1,1.2,0,31,0,0,32,43,0,0,0,0,33,34,0,0,19,0,0,38,0,33,0,0,0,0,43,0,0,0,29,0,30,0
6,6614,2,VK3TRK,-0.14,3,   boost,2.45,86459,1318.25,0.57,     NaN,42.5,8.43,8.4,4.1,0,10.57,0,135.2,135.81,0,0,0,0,    NaN,8.38,8.44,8.37,0,0,1,1,11,32.9430368,-106.9145895,1389,2022,6,23,19,5,47,0,0,0,0,1.6,1,1.2,0,31,0,0,32,43,0,0,0,0,33,34,0,0,19,0,0,38,0,33,0,0,0,0,43,0,0,0,29,0,30,0
6,6614,2,VK3TRK,-0.13,3,   boost,0.98,86463,1317.87,0.19,     NaN,42.5,8.43,8.4,4.1,0,10.57,0,135.2,135.81,0,0,0,0,    NaN,8.38,8.44,8.37,0,0,1,1,11,32.9430368,-106.9145895,1389,2022,6,23,19,5,47,0,0,0,0,1.6,1,1.2,0,31,0,0,32,43,0,0,0,0,33,34,0,0,19,0,0,38,0,33,0,0,0,0,43,0,0,0,29,0,30,0
6,6614,2,VK3TRK,-0.12,3,   boost,-0.98,86464,1317.77,0.09,     NaN,42.5,8.43,8.4,4.1,0,10.57,0,135.2,135.81,0,0,0,0,    NaN,8.38,8.44,8.37,0,0,1,1,11,32.9430368,-106.9145895,1389,2022,6,23,19,5,47,0,0,0,0,1.6,1,1.2,0,31,0,0,32,43,0,0,0,0,33,34,0,0,19,0,0,38,0,33,0,0,0,0,43,0,0,0,29,0,30,0
6,6614,2,VK3TRK,-0.11,3,   boost,-0.98,86478,1316.45,-1.23,     NaN,42.5,8.43,8.4,4.1,0,10.57,0,135.2,135.81,0,0,0,0,    NaN,8.38,8.44,8.37,0,0,1,1,11,32.9430368,-106.9145895,1389,2022,6,23,19,5,47,0,0,0,0,1.6,1,1.2,0,31,0,0,32,43,0,0,0,0,33,34,0,0,19,0,0,38,0,33,0,0,0,0,43,0,0,0,29,0,30,0
6,6614,2,VK3TRK,-0.1,3,   boost,-0.49,86461,1318.06,0.38,     NaN,42.5,8.43,8.4,4.1,0,10.57,0,135.2,135.81,0,0,0,0,    NaN,8.38,8.44,8.37,0,0,1,1,11,32.9430368,-106.9145895,1389,2022,6,23,19,5,47,0,0,0,0,1.6,1,1.2,0,31,0,0,32,43,0,0,0,0,33,34,0,0,19,0,0,38,0,33,0,0,0,0,43,0,0,0,29,0,30,0
6,6614,2,VK3TRK,-0.09,3,   boost,0,86473,1316.92,-0.76,     NaN,42.5,8.43,8.4,4.1,0,10.57,0,135.2,135.81,0,0,0,0,    NaN,8.38,8.44,8.37,0,0,1,1,11,32.9430368,-106.9145895,1389,2022,6,23,19,5,47,0,0,0,0,1.6,1,1.2,0,31,0,0,32,43,0,0,0,0,33,34,0,0,19,0,0,38,0,33,0,0,0,0,43,0,0,0,29,0,30,0
6,6614,2,VK3TRK,-0.08,3,   boost,1.96,86475,1316.73,-0.95,     NaN,42.5,8.43,8.4,4.1,0,10.57,0,135.2,135.81,0,0,0,0,    NaN,8.38,8.44,8.37,0,0,1,1,11,32.9430368,-106.9145895,1389,2022,6,23,19,5,47,0,0,0,0,1.6,1,1.2,0,31,0,0,32,43,0,0,0,0,33,34,0,0,19,0,0,38,0,33,0,0,0,0,43,0,0,0,29,0,30,0
6,6614,2,VK3TRK,-0.07,3,   boost,23.54,86485,1315.79,-1.89,     NaN,42.5,8.43,8.4,4.1,0,10.57,0,135.2,135.81,0,0,0,0,    NaN,8.38,8.44,8.37,0,0,1,1,11,32.9430368,-106.9145895,1389,2022,6,23,19,5,47,0,0,0,0,1.6,1,1.2,0,31,0,0,32,43,0,0,0,0,33,34,0,0,19,0,0,38,0,33,0,0,0,0,43,0,0,0,29,0,30,0
6,6614,2,VK3TRK,-0.06,3,   boost,60.31,86533,1311.24,-6.43,     NaN,42.5,8.43,8.4,4.1,0,10.57,0,135.2,135.81,0,0,0,0,    NaN,8.38,8.44,8.37,0,0,1,1,11,32.9430368,-106.9145895,1389,2022,6,23,19,5,47,0,0,0,0,1.6,1,1.2,0,31,0,0,32,43,0,0,0,0,33,34,0,0,19,0,0,38,0,33,0,0,0,0,43,0,0,0,29,0,30,0
6,6614,2,VK3TRK,-0.05,3,   boost,90.71,86493,1315.03,-2.65,     NaN,42.5,8.43,8.4,4.1,0,10.57,0,135.2,135.81,0,0,0,0,    NaN,8.38,8.44,8.37,0,0,1,1,11,32.9430368,-106.9145895,1389,2022,6,23,19,5,47,0,0,0,0,1.6,1,1.2,0,31,0,0,32,43,0,0,0,0,33,34,0,0,19,0,0,38,0,33,0,0,0,0,43,0,0,0,29,0,30,0
6,6614,2,VK3TRK,-0.04,3,   boost,103.46,86471,1317.11,-0.57,     NaN,42.5,8.43,8.4,4.1,0,10.57,0,135.2,135.81,0,0,0,0,    NaN,8.38,8.44,8.37,0,0,1,1,11,32.9430368,-106.9145895,1389,2022,6,23,19,5,47,0,0,0,0,1.6,1,1.2,0,31,0,0,32,43,0,0,0,0,33,34,0,0,19,0,0,38,0,33,0,0,0,0,43,0,0,0,29,0,30,0
6,6614,2,VK3TRK,-0.03,3,   boost,126.51,86468,1317.39,-0.28,     NaN,42.5,8.43,8.4,4.1,0,10.57,0,135.2,135.81,0,0,0,0,    NaN,8.38,8.44,8.37,0,0,1,1,11,32.9430368,-106.9145895,1389,2022,6,23,19,5,47,0,0,0,0,1.6,1,1.2,0,31,0,0,32,43,0,0,0,0,33,34,0,0,19,0,0,38,0,33,0,0,0,0,43,0,0,0,29,0,30,0
6,6614,2,VK3TRK,-0.02,3,   boost,112.78,86469,1317.3,-0.38,     NaN,42.5,8.43,8.4,4.1,0,10.57,0,135.2,135.81,0,0,0,0,    NaN,8.38,8.44,8.37,0,0,1,1,11,32.9430368,-106.9145895,1389,2022,6,23,19,5,47,0,0,0,0,1.6,1,1.2,0,31,0,0,32,43,0,0,0,0,33,34,0,0,19,0,0,38,0,33,0,0,0,0,43,0,0,0,29,0,30,0
6,6614,2,VK3TRK,-0.01,3,   boost,109.34,86462,1317.96,0.28,     NaN,42.5,8.43,8.4,4.1,0,10.57,0,135.2,135.81,0,0,0,0,    NaN,8.38,8.44,8.37,0,0,1,1,11,32.9430368,-106.9145895,1389,2022,6,23,19,5,47,0,0,0,0,1.6,1,1.2,0,31,0,0,32,43,0,0,0,0,33,34,0,0,19,0,0,38,0,33,0,0,0,0,43,0,0,0,29,0,30,0
6,6614,2,VK3TRK,0,3,   boost,97.09,86446,1319.48,1.8,     NaN,42.5,8.43,8.4,4.1,0,10.57,0,135.2,135.81,0,0,0,0,    NaN,8.38,8.44,8.37,0,0,1,1,11,32.9430368,-106.9145895,1389,2022,6,23,19,5,47,0,0,0,0,1.6,1,1.2,0,31,0,0,32,43,0,0,0,0,33,34,0,0,19,0,0,38,0,33,0,0,0,0,43,0,0,0,29,0,30,0
6,6614,2,VK3TRK,0,3,   boost,97.09,86446,1319.48,1.8,     NaN,42.5,8.43,8.4,4.1,0,10.57,0,135.2,135.81,0,0,0,0,    NaN,8.38,8.44,8.37,0,0,1,1,11,32.9430368,-106.9145895,1389,2022,6,23,19,5,47,0,0,0,0,1.6,1,1.2,0,31,0,0,32,43,0,0,0,0,33,34,0,0,19,0,0,38,0,33,0,0,0,0,43,0,0,0,29,0,30,0
6,6614,2,VK3TRK,0,3,   boost,97.09,86446,1319.48,1.8,     NaN,42.5,8.43,8.4,4.1,0,10.57,0,135.2,135.81,0,0,0,0,    NaN,8.38,8.44,8.37,0,0,1,1,11,32.9430368,-106.9145895,1389,2022,6,23,19,5,47,0,0,0,0,1.6,1,1.2,0,31,0,0,32,43,0,0,0,0,33,34,0,0,19,0,0,38,0,33,0,0,0,0,43,0,0,0,29,0,30,0
6,6614,2,VK3TRK,0,3,   boost,97.09,86446,1319.48,1.8,     NaN,42.5,8.43,8.4,4.1,0,10.57,0,135.2,135.81,0,0,0,0,    NaN,8.38,8.44,8.37,0,0,1,1,11,32.9430368,-106.9145895,1389,2022,6,23,19,5,47,0,0,0,0,1.6,1,1.2,0,31,0,0,32,43,0,0,0,0,33,34,0,0,19,0,0,38,0,33,0,0,0,0,43,0,0,0,29,0,30,0
6,6614,2,VK3TRK,0,3,   boost,97.09,86446,1319.48,1.8,     NaN,42.5,8.43,8.4,4.1,0,10.57,0,135.2,135.81,0,0,0,0,    NaN,8.38,8.44,8.37,0,0,1,1,11,32.9430368,-106.9145895,1389,2022,6,23,19,5,47,0,0,0,0,1.6,1,1.2,0,31,0,0,32,43,0,0,0,0,33,34,0,0,19,0,0,38,0,33,0,0,0,0,43,0,0,0,29,0,30,0
6,6614,2,VK3TRK,0,3,   boost,97.09,86446,1319.48,1.8,     NaN,42.5,8.43,8.4,4.1,0,10.57,0,135.2,135.81,0,0,0,0,    NaN,8.38,8.44,8.37,0,0,1,1,11,32.9430368,-106.9145895,1389,2022,6,23,19,5,47,0,0,0,0,1.6,1,1.2,0,31,0,0,32,43,0,0,0,0,33,34,0,0,19,0,0,38,0,33,0,0,0,0,43,0,0,0,29,0,30,0
6,6614,2,VK3TRK,0,3,   boost,97.09,86446,1319.48,1.8,     NaN,42.5,8.43,8.4,4.1,0,10.57,0,135.2,135.81,0,0,0,0,    NaN,8.38,8.44,8.37,0,0,1,1,11,32.9430368,-106.9145895,1389,2022,6,23,19,5,47,0,0,0,0,1.6,1,1.2,0,31,0,0,32,43,0,0,0,0,33,34,0,0,19,0,0,38,0,33,0,0,0,0,43,0,0,0,29,0,30,0
6,6614,2,VK3TRK,0,3,   boost,97.09,86446,1319.48,1.8,     NaN,42.5,8.43,8.4,4.1,0,10.57,0,135.2,135.81,0,0,0,0,    NaN,8.38,8.44,8.37,0,0,1,1,11,32.9430368,-106.9145895,1389,2022,6,23,19,5,47,0,0,0,0,1.6,1,1.2,0,31,0,0,32,43,0,0,0,0,33,34,0,0,19,0,0,38,0,33,0,0,0,0,43,0,0,0,29,0,30,0
6,6614,2,VK3TRK,0,3,   boost,97.09,86446,1319.48,1.8,     NaN,42.5,8.43,8.4,4.1,0,10.57,0,135.2,135.81,0,0,0,0,    NaN,8.38,8.44,8.37,0,0,1,1,11,32.9430368,-106.9145895,1389,2022,6,23,19,5,47,0,0,0,0,1.6,1,1.2,0,31,0,0,32,43,0,0,0,0,33,34,0,0,19,0,0,38,0,33,0,0,0,0,43,0,0,0,29,0,30,0
6,6614,2,VK3TRK,0,3,   boost,97.09,86446,1319.48,1.8,     NaN,42.5,8.43,8.4,4.1,0,10.57,0,135.2,135.81,0,0,0,0,    NaN,8.38,8.44,8.37,0,0,1,1,11,32.9430368,-106.9145895,1389,2022,6,23,19,5,47,0,0,0,0,1.6,1,1.2,0,31,0,0,32,43,0,0,0,0,33,34,0,0,19,0,0,38,0,33,0,0,0,0,43,0,0,0,29,0,30,0
6,6614,2,VK3TRK,0,3,   boost,97.09,86446,1319.48,1.8,     NaN,42.5,8.43,8.4,4.1,0,10.57,0,135.2,135.81,0,0,0,0,    NaN,8.38,8.44,8.37,0,0,1,1,11,32.9430368,-106.9145895,1389,2022,6,23,19,5,47,0,0,0,0,1.6,1,1.2,0,31,0,0,32,43,0,0,0,0,33,34,0,0,19,0,0,38,0,33,0,0,0,0,43,0,0,0,29,0,30,0
6,6614,2,VK3TRK,0,3,   boost,97.09,86446,1319.48,1.8,     NaN,42.5,8.43,8.4,4.1,0,10.57,0,135.2,135.81,0,0,0,0,    NaN,8.38,8.44,8.37,0,0,1,1,11,32.9430368,-106.9145895,1389,2022,6,23,19,5,47,0,0,0,0,1.6,1,1.2,0,31,0,0,32,43,0,0,0,0,33,34,0,0,19,0,0,38,0,33,0,0,0,0,43,0,0,0,29,0,30,0
6,6614,2,VK3TRK,0,3,   boost,97.09,86446,1319.48,1.8,     NaN,42.5,8.43,8.4,4.1,0,10.57,0,135.2,135.81,0,0,0,0,    NaN,8.38,8.44,8.37,0,0,1,1,11,32.9430368,-106.9145895,1389,2022,6,23,19,5,47,0,0,0,0,1.6,1,1.2,0,31,0,0,32,43,0,0,0,0,33,34,0,0,19,0,0,38,0,33,0,0,0,0,43,0,0,0,29,0,30,0
6,6614,2,VK3TRK,0,3,   boost,97.09,86446,1319.48,1.8,     NaN,42.5,8.43,8.4,4.1,0,10.57,0,135.2,135.81,0,0,0,0,    NaN,8.38,8.44,8.37,0,0,1,1,11,32.9430368,-106.9145895,1389,2022,6,23,19,5,47,0,0,0,0,1.6,1,1.2,0,31,0,0,32,43,0,0,0,0,33,34,0,0,19,0,0,38,0,33,0,0,0,0,43,0,0,0,29,0,30,0
6,6614,2,VK3TRK,0,3,   boost,97.09,86446,1319.48,1.8,     NaN,42.5,8.43,8.4,4.1,0,10.57,0,135.2,135.81,0,0,0,0,    NaN,8.38,8.44,8.37,0,0,1,1,11,32.9430368,-106.9145895,1389,2022,6,23,19,5,47,0,0,0,0,1.6,1,1.2,0,31,0,0,32,43,0,0,0,0,33,34,0,0,19,0,0,38,0,33,0,0,0,0,43,0,0,0,29,0,30,0
6,6614,2,VK3TRK,0,3,   boost,97.09,86446,1319.48,1.8,     NaN,42.5,8.43,8.4,4.1,0,10.57,0,135.2,135.81,0,0,0,0,    NaN,8.38,8.44,8.37,0,0,1,1,11,32.9430368,-106.9145895,1389,2022,6,23,19,5,47,0,0,0,0,1.6,1,1.2,0,31,0,0,32,43,0,0,0,0,33,34,0,0,19,0,0,38,0,33,0,0,0,0,43,0,0,0,29,0,30,0
6,6614,2,VK3TRK,0,3,   boost,97.09,86446,1319.48,1.8,     NaN,42.5,8.43,8.4,4.1,0,10.57,0,135.2,135.81,0,0,0,0,    NaN,8.38,8.44,8.37,0,0,1,1,11,32.9430368,-106.9145895,1389,2022,6,23,19,5,47,0,0,0,0,1.6,1,1.2,0,31,0,0,32,43,0,0,0,0,33,34,0,0,19,0,0,38,0,33,0,0,0,0,43,0,0,0,29,0,30,0
6,6614,2,VK3TRK,0,3,   boost,97.09,86446,1319.48,1.8,     NaN,42.5,8.43,8.4,4.1,0,10.57,0,135.2,135.81,0,0,0,0,    NaN,8.38,8.44,8.37,0,0,1,1,11,32.9430368,-106.9145895,1389,2022,6,23,19,5,47,0,0,0,0,1.6,1,1.2,0,31,0,0,32,43,0,0,0,0,33,34,0,0,19,0,0,38,0,33,0,0,0,0,43,0,0,0,29,0,30,0
6,6614,2,VK3TRK,0,3,   boost,97.09,86446,1319.48,1.8,     NaN,42.5,8.43,8.4,4.1,0,10.57,0,135.2,135.81,0,0,0,0,    NaN,8.38,8.44,8.37,0,0,1,1,11,32.9430368,-106.9145895,1389,2022,6,23,19,5,47,0,0,0,0,1.6,1,1.2,0,31,0,0,32,43,0,0,0,0,33,34,0,0,19,0,0,38,0,33,0,0,0,0,43,0,0,0,29,0,30,0
6,6614,2,VK3TRK,0,3,   boost,97.09,86446,1319.48,1.8,     NaN,42.5,8.43,8.4,4.1,0,10.57,0,135.2,135.81,0,0,0,0,    NaN,8.38,8.44,8.37,0,0,1,1,11,32.9430368,-106.9145895,1389,2022,6,23,19,5,47,0,0,0,0,1.6,1,1.2,0,31,0,0,32,43,0,0,0,0,33,34,0,0,19,0,0,38,0,33,0,0,0,0,43,0,0,0,29,0,30,0
6,6614,2,VK3TRK,0,3,   boost,97.09,86446,1319.48,1.8,     NaN,42.5,8.43,8.4,4.1,0,10.57,0,135.2,135.81,0,0,0,0,    NaN,8.38,8.44,8.37,0,0,1,1,11,32.9430368,-106.9145895,1389,2022,6,23,19,5,47,0,0,0,0,1.6,1,1.2,0,31,0,0,32,43,0,0,0,0,33,34,0,0,19,0,0,38,0,33,0,0,0,0,43,0,0,0,29,0,30,0
6,6614,2,VK3TRK,0,3,   boost,97.09,86446,1319.48,1.8,     NaN,42.5,8.43,8.4,4.1,0,10.57,0,135.2,135.81,0,0,0,0,    NaN,8.38,8.44,8.37,0,0,1,1,11,32.9430368,-106.9145895,1389,2022,6,23,19,5,47,0,0,0,0,1.6,1,1.2,0,31,0,0,32,43,0,0,0,0,33,34,0,0,19,0,0,38,0,33,0,0,0,0,43,0,0,0,29,0,30,0
6,6614,2,VK3TRK,0,3,   boost,97.09,86446,1319.48,1.8,     NaN,42.5,8.43,8.4,4.1,0,10.57,0,135.2,135.81,0,0,0,0,    NaN,8.38,8.44,8.37,0,0,1,1,11,32.9430368,-106.9145895,1389,2022,6,23,19,5,47,0,0,0,0,1.6,1,1.2,0,31,0,0,32,43,0,0,0,0,33,34,0,0,19,0,0,38,0,33,0,0,0,0,43,0,0,0,29,0,30,0
6,6614,2,VK3TRK,0,3,   boost,97.09,86446,1319.48,1.8,     NaN,42.5,8.43,8.4,4.1,0,10.57,0,135.2,135.81,0,0,0,0,    NaN,8.38,8.44,8.37,0,0,1,1,11,32.9430368,-106.9145895,1389,2022,6,23,19,5,47,0,0,0,0,1.6,1,1.2,0,31,0,0,32,43,0,0,0,0,33,34,0,0,19,0,0,38,0,33,0,0,0,0,43,0,0,0,29,0,30,0
6,6614,2,VK3TRK,0,3,   boost,97.09,86446,1319.48,1.8,     NaN,42.5,8.43,8.4,4.1,0,10.57,0,135.2,135.81,0,0,0,0,    NaN,8.38,8.44,8.37,0,0,1,1,11,32.9430368,-106.9145895,1389,2022,6,23,19,5,47,0,0,0,0,1.6,1,1.2,0,31,0,0,32,43,0,0,0,0,33,34,0,0,19,0,0,38,0,33,0,0,0,0,43,0,0,0,29,0,30,0
6,6614,2,VK3TRK,0,3,   boost,97.09,86446,1319.48,1.8,     NaN,42.5,8.43,8.4,4.1,0,10.57,0,135.2,135.81,0,0,0,0,    NaN,8.38,8.44,8.37,0,0,1,1,11,32.9430368,-106.9145895,1389,2022,6,23,19,5,47,0,0,0,0,1.6,1,1.2,0,31,0,0,32,43,0,0,0,0,33,34,0,0,19,0,0,38,0,33,0,0,0,0,43,0,0,0,29,0,30,0
6,6614,2,VK3TRK,0,3,   boost,97.09,86446,1319.48,1.8,     NaN,42.5,8.43,8.4,4.1,0,10.57,0,135.2,135.81,0,0,0,0,    NaN,8.38,8.44,8.37,0,0,1,1,11,32.9430368,-106.9145895,1389,2022,6,23,19,5,47,0,0,0,0,1.6,1,1.2,0,31,0,0,32,43,0,0,0,0,33,34,0,0,19,0,0,38,0,33,0,0,0,0,43,0,0,0,29,0,30,0
6,6614,2,VK3TRK,0,3,   boost,97.09,86446,1319.48,1.8,     NaN,42.5,8.43,8.4,4.1,0,10.57,0,135.2,135.81,0,0,0,0,    NaN,8.38,8.44,8.37,0,0,1,1,11,32.9430368,-106.9145895,1389,2022,6,23,19,5,47,0,0,0,0,1.6,1,1.2,0,31,0,0,32,43,0,0,0,0,33,34,0,0,19,0,0,38,0,33,0,0,0,0,43,0,0,0,29,0,30,0
6,6614,2,VK3TRK,0,3,   boost,97.09,86446,1319.48,1.8,     NaN,42.5,8.43,8.4,4.1,0,10.57,0,135.2,135.81,0,0,0,0,    NaN,8.38,8.44,8.37,0,0,1,1,11,32.9430368,-106.9145895,1389,2022,6,23,19,5,47,0,0,0,0,1.6,1,1.2,0,31,0,0,32,43,0,0,0,0,33,34,0,0,19,0,0,38,0,33,0,0,0,0,43,0,0,0,29,0,30,0
6,6614,2,VK3TRK,0,3,   boost,97.09,86446,1319.48,1.8,     NaN,42.5,8.43,8.4,4.1,0,10.57,0,135.2,135.81,0,0,0,0,    NaN,8.38,8.44,8.37,0,0,1,1,11,32.9430368,-106.9145895,1389,2022,6,23,19,5,47,0,0,0,0,1.6,1,1.2,0,31,0,0,32,43,0,0,0,0,33,34,0,0,19,0,0,38,0,33,0,0,0,0,43,0,0,0,29,0,30,0
6,6614,2,VK3TRK,0,3,   boost,97.09,86446,1319.48,1.8,     NaN,42.5,8.43,8.4,4.1,0,10.57,0,135.2,135.81,0,0,0,0,    NaN,8.38,8.44,8.37,0,0,1,1,11,32.9430368,-106.9145895,1389,2022,6,23,19,5,47,0,0,0,0,1.6,1,1.2,0,31,0,0,32,43,0,0,0,0,33,34,0,0,19,0,0,38,0,33,0,0,0,0,43,0,0,0,29,0,30,0
6,6614,2,VK3TRK,0,3,   boost,97.09,86446,1319.48,1.8,     NaN,42.5,8.43,8.4,4.1,0,10.57,0,135.2,135.81,0,0,0,0,    NaN,8.38,8.44,8.37,0,0,1,1,11,32.9430368,-106.9145895,1389,2022,6,23,19,5,47,0,0,0,0,1.6,1,1.2,0,31,0,0,32,43,0,0,0,0,33,34,0,0,19,0,0,38,0,33,0,0,0,0,43,0,0,0,29,0,30,0
6,6614,2,VK3TRK,0,3,   boost,97.09,86446,1319.48,1.8,     NaN,42.5,8.43,8.4,4.1,0,10.57,0,135.2,135.81,0,0,0,0,    NaN,8.38,8.44,8.37,0,0,1,1,11,32.9430368,-106.9145895,1389,2022,6,23,19,5,47,0,0,0,0,1.6,1,1.2,0,31,0,0,32,43,0,0,0,0,33,34,0,0,19,0,0,38,0,33,0,0,0,0,43,0,0,0,29,0,30,0
6,6614,2,VK3TRK,0,3,   boost,97.09,86446,1319.48,1.8,     NaN,42.5,8.43,8.4,4.1,0,10.57,0,135.2,135.81,0,0,0,0,    NaN,8.38,8.44,8.37,0,0,1,1,11,32.9430368,-106.9145895,1389,2022,6,23,19,5,47,0,0,0,0,1.6,1,1.2,0,31,0,0,32,43,0,0,0,0,33,34,0,0,19,0,0,38,0,33,0,0,0,0,43,0,0,0,29,0,30,0
6,6614,2,VK3TRK,0,3,   boost,97.09,86446,1319.48,1.8,     NaN,42.5,8.43,8.4,4.1,0,10.57,0,135.2,135.81,0,0,0,0,    NaN,8.38,8.44,8.37,0,0,1,1,11,32.9430368,-106.9145895,1389,2022,6,23,19,5,47,0,0,0,0,1.6,1,1.2,0,31,0,0,32,43,0,0,0,0,33,34,0,0,19,0,0,38,0,33,0,0,0,0,43,0,0,0,29,0,30,0
6,6614,2,VK3TRK,0.01,3,   boost,107.87,86430,1320.99,3.31,     NaN,42.5,8.43,8.4,4.1,0,10.57,0,135.2,135.81,0,0,0,0,    NaN,8.38,8.44,8.37,0,0,1,1,11,32.9430368,-106.9145895,1389,2022,6,23,19,5,47,0,0,0,0,1.6,1,1.2,0,31,0,0,32,43,0,0,0,0,33,34,0,0,19,0,0,38,0,33,0,0,0,0,43,0,0,0,29,0,30,0
6,6614,2,VK3TRK,0.01,3,   boost,107.87,86430,1320.99,3.31,     NaN,42.5,8.43,8.4,4.1,0,10.57,0,135.2,135.81,0,0,0,0,    NaN,8.38,8.44,8.37,0,0,1,1,11,32.9430368,-106.9145895,1389,2022,6,23,19,5,47,0,0,0,0,1.6,1,1.2,0,31,0,0,32,43,0,0,0,0,33,34,0,0,19,0,0,38,0,33,0,0,0,0,43,0,0,0,29,0,30,0
6,6614,2,VK3TRK,0.02,3,   boost,111.31,86416,1322.32,4.64,     NaN,42.5,8.41,8.4,4.09,0,10.57,0,135.2,135.81,0,0,0,0,    NaN,8.37,8.45,8.38,0,0,1,1,11,32.9430368,-106.9145895,1389,2022,6,23,19,5,47,0,0,0,0,1.6,1,1.2,0,31,0,0,32,43,0,0,0,0,33,34,0,0,19,0,0,38,0,33,0,0,0,0,43,0,0,0,29,0,30,0
6,6614,2,VK3TRK,0.02,3,   boost,111.31,86416,1322.32,4.64,     NaN,42.5,8.41,8.4,4.09,0,10.57,0,135.2,135.81,0,0,0,0,    NaN,8.37,8.45,8.38,0,0,1,1,11,32.9430368,-106.9145895,1389,2022,6,23,19,5,47,0,0,0,0,1.6,1,1.2,0,31,0,0,32,43,0,0,0,0,33,34,0,0,19,0,0,38,0,33,0,0,0,0,43,0,0,0,29,0,30,0
6,6614,2,VK3TRK,0.03,3,   boost,112.78,86445,1319.57,1.89,     NaN,42.5,8.41,8.4,4.09,0,10.58,0,135.26,135.44,0,0,0,0,    NaN,8.37,8.45,8.38,0,0,1,1,11,32.9430368,-106.9145895,1389,2022,6,23,19,5,47,0,0,0,0,1.6,1,1.2,0,31,0,0,32,43,0,0,0,0,33,34,0,0,19,0,0,38,0,33,0,0,0,0,43,0,0,0,29,0,30,0
6,6614,2,VK3TRK,0.04,3,   boost,111.8,86432,1320.8,3.12,     NaN,42.5,8.41,8.4,4.09,0,10.58,0,135.26,135.44,0,0,0,0,    NaN,8.37,8.45,8.38,0,0,1,1,11,32.9430368,-106.9145895,1389,2022,6,23,19,5,47,0,0,0,0,1.6,1,1.2,0,31,0,0,32,43,0,0,0,0,33,34,0,0,19,0,0,38,0,33,0,0,0,0,43,0,0,0,29,0,30,0
6,6614,2,VK3TRK,0.05,3,   boost,106.89,86426,1321.37,3.69,     NaN,42.5,8.41,8.4,4.09,0,10.58,0,135.26,135.44,0,0,0,0,    NaN,8.37,8.45,8.38,0,0,1,1,11,32.9430368,-106.9145895,1389,2022,6,23,19,5,47,0,0,0,0,1.6,1,1.2,0,31,0,0,32,43,0,0,0,0,33,34,0,0,19,0,0,38,0,33,0,0,0,0,43,0,0,0,29,0,30,0
6,6614,2,VK3TRK,0.06,3,   boost,107.38,86459,1318.25,0.57,     NaN,42.5,8.41,8.4,4.09,0,10.58,0,135.26,135.44,0,0,0,0,    NaN,8.37,8.45,8.38,0,0,1,1,11,32.9430368,-106.9145895,1389,2022,6,23,19,5,47,0,0,0,0,1.6,1,1.2,0,31,0,0,32,43,0,0,0,0,33,34,0,0,19,0,0,38,0,33,0,0,0,0,43,0,0,0,29,0,30,0
6,6614,2,VK3TRK,0.07,3,   boost,106.89,86452,1318.91,1.23,     NaN,42.5,8.41,8.4,4.09,0,10.58,0,135.26,135.44,0,0,0,0,    NaN,8.37,8.45,8.38,0,0,1,1,11,32.9430368,-106.9145895,1389,2022,6,23,19,5,47,0,0,0,0,1.6,1,1.2,0,31,0,0,32,43,0,0,0,0,33,34,0,0,19,0,0,38,0,33,0,0,0,0,43,0,0,0,29,0,30,0
6,6614,2,VK3TRK,0.08,3,   boost,106.89,86436,1320.42,2.75,     NaN,42.5,8.41,8.4,4.09,0,10.58,0,135.26,135.44,0,0,0,0,    NaN,8.37,8.45,8.38,0,0,1,1,11,32.9430368,-106.9145895,1389,2022,6,23,19,5,47,0,0,0,0,1.6,1,1.2,0,31,0,0,32,43,0,0,0,0,33,34,0,0,19,0,0,38,0,33,0,0,0,0,43,0,0,0,29,0,30,0
6,6614,2,VK3TRK,0.09,3,   boost,106.4,86453,1318.81,1.14,     NaN,42.5,8.41,8.4,4.09,0,10.58,0,135.26,135.44,0,0,0,0,    NaN,8.37,8.45,8.38,0,0,1,1,11,32.9430368,-106.9145895,1389,2022,6,23,19,5,47,0,0,0,0,1.6,1,1.2,0,31,0,0,32,43,0,0,0,0,33,34,0,0,19,0,0,38,0,33,0,0,0,0,43,0,0,0,29,0,30,0
6,6614,2,VK3TRK,0.1,3,   boost,105.91,86443,1319.76,2.08,     NaN,42.5,8.41,8.4,4.09,0,10.58,0,135.26,135.44,0,0,0,0,    NaN,8.37,8.45,8.38,0,0,1,1,11,32.9430368,-106.9145895,1389,2022,6,23,19,5,47,0,0,0,0,1.6,1,1.2,0,31,0,0,32,43,0,0,0,0,33,34,0,0,19,0,0,38,0,33,0,0,0,0,43,0,0,0,29,0,30,0
6,6614,2,VK3TRK,0.11,3,   boost,105.91,86422,1321.75,4.07,     NaN,42.5,8.41,8.4,4.09,0,10.58,0,135.26,135.44,0,0,0,0,    NaN,8.37,8.45,8.38,0,0,1,1,11,32.9430368,-106.9145895,1389,2022,6,23,19,5,47,0,0,0,0,1.6,1,1.2,0,31,0,0,32,43,0,0,0,0,33,34,0,0,19,0,0,38,0,33,0,0,0,0,43,0,0,0,29,0,30,0
6,6614,2,VK3TRK,0.12,3,   boost,106.4,86425,1321.47,3.79,     NaN,42.5,8.41,8.4,4.09,0,10.58,0,135.26,135.44,0,0,0,0,    NaN,8.37,8.45,8.38,0,0,1,1,11,32.9430368,-106.9145895,1389,2022,6,23,19,5,47,0,0,0,0,1.6,1,1.2,0,31,0,0,32,43,0,0,0,0,33,34,0,0,19,0,0,38,0,33,0,0,0,0,43,0,0,0,29,0,30,0
6,6614,2,VK3TRK,0.13,3,   boost,104.44,86458,1318.34,0.66,     NaN,42.5,8.41,8.4,4.09,0,10.58,0,135.26,135.44,0,0,0,0,    NaN,8.37,8.45,8.38,0,0,1,1,11,32.9430368,-106.9145895,1389,2022,6,23,19,5,47,0,0,0,0,1.6,1,1.2,0,31,0,0,32,43,0,0,0,0,33,34,0,0,19,0,0,38,0,33,0,0,0,0,43,0,0,0,29,0,30,0
6,6614,2,VK3TRK,0.14,3,   boost,105.42,86424,1321.56,3.88,     NaN,42.5,8.41,8.4,4.09,0,10.58,0,135.26,135.44,0,0,0,0,    NaN,8.37,8.45,8.38,0,0,1,1,11,32.9430368,-106.9145895,1389,2022,6,23,19,5,47,0,0,0,0,1.6,1,1.2,0,31,0,0,32,43,0,0,0,0,33,34,0,0,19,0,0,38,0,33,0,0,0,0,43,0,0,0,29,0,30,0
6,6614,2,VK3TRK,0.15,3,   boost,102.48,86410,1322.89,5.21,     NaN,42.5,8.41,8.4,4.09,0,10.58,0,135.26,135.44,0,0,0,0,    NaN,8.37,8.45,8.38,0,0,1,1,11,32.9430368,-106.9145895,1389,2022,6,23,19,5,47,0,0,0,0,1.6,1,1.2,0,31,0,0,32,43,0,0,0,0,33,34,0,0,19,0,0,38,0,33,0,0,0,0,43,0,0,0,29,0,30,0
6,6614,2,VK3TRK,0.16,3,   boost,104.44,86418,1322.13,4.45,     NaN,42.5,8.41,8.4,4.09,0,10.58,0,135.26,135.44,0,0,0,0,    NaN,8.37,8.45,8.38,0,0,1,1,11,32.9430368,-106.9145895,1389,2022,6,23,19,5,47,0,0,0,0,1.6,1,1.2,0,31,0,0,32,43,0,0,0,0,33,34,0,0,19,0,0,38,0,33,0,0,0,0,43,0,0,0,29,0,30,0
6,6614,2,VK3TRK,0.17,3,   boost,101.5,86436,1320.42,2.75,     NaN,42.5,8.41,8.4,4.09,0,10.58,0,135.26,135.44,0,0,0,0,    NaN,8.37,8.45,8.38,0,0,1,1,11,32.9430368,-106.9145895,1389,2022,6,23,19,5,47,0,0,0,0,1.6,1,1.2,0,31,0,0,32,43,0,0,0,0,33,34,0,0,19,0,0,38,0,33,0,0,0,0,43,0,0,0,29,0,30,0
6,6614,2,VK3TRK,0.18,3,   boost,102.97,86427,1321.28,3.6,     NaN,42.5,8.41,8.4,4.09,0,10.58,0,135.26,135.44,0,0,0,0,    NaN,8.37,8.45,8.38,0,0,1,1,11,32.9430368,-106.9145895,1389,2022,6,23,19,5,47,0,0,0,0,1.6,1,1.2,0,31,0,0,32,43,0,0,0,0,33,34,0,0,19,0,0,38,0,33,0,0,0,0,43,0,0,0,29,0,30,0
6,6614,2,VK3TRK,0.19,3,   boost,101.99,86418,1322.13,4.45,     NaN,42.5,8.41,8.4,4.09,0,10.58,0,135.26,135.44,0,0,0,0,    NaN,8.37,8.45,8.38,0,0,1,1,11,32.9430368,-106.9145895,1389,2022,6,23,19,5,47,0,0,0,0,1.6,1,1.2,0,31,0,0,32,43,0,0,0,0,33,34,0,0,19,0,0,38,0,33,0,0,0,0,43,0,0,0,29,0,30,0
6,6614,2,VK3TRK,0.2,3,   boost,102.97,86428,1321.18,3.5,     NaN,42.5,8.41,8.4,4.09,0,10.58,0,135.26,135.44,0,0,0,0,    NaN,8.37,8.45,8.38,0,0,1,1,11,32.9430368,-106.9145895,1389,2022,6,23,19,5,47,0,0,0,0,1.6,1,1.2,0,31,0,0,32,43,0,0,0,0,33,34,0,0,19,0,0,38,0,33,0,0,0,0,43,0,0,0,29,0,30,0
6,6614,2,VK3TRK,0.21,3,   boost,103.95,86402,1323.64,5.96,     NaN,42.5,8.41,8.4,4.09,0,10.58,0,135.26,135.44,0,0,0,0,    NaN,8.37,8.45,8.38,0,0,1,1,11,32.9430368,-106.9145895,1389,2022,6,23,19,5,47,0,0,0,0,1.6,1,1.2,0,31,0,0,32,43,0,0,0,0,33,34,0,0,19,0,0,38,0,33,0,0,0,0,43,0,0,0,29,0,30,0
6,6614,2,VK3TRK,0.22,3,   boost,102.48,86405,1323.36,5.68,     NaN,42.5,8.41,8.4,4.09,0,10.58,0,135.26,135.44,0,0,0,0,    NaN,8.37,8.45,8.38,0,0,1,1,11,32.9430368,-106.9145895,1389,2022,6,23,19,5,47,0,0,0,0,1.6,1,1.2,0,31,0,0,32,43,0,0,0,0,33,34,0,0,19,0,0,38,0,33,0,0,0,0,43,0,0,0,29,0,30,0
6,6614,2,VK3TRK,0.23,3,   boost,101.99,86398,1324.02,6.34,     NaN,42.5,8.41,8.4,4.09,0,10.58,0,135.26,135.44,0,0,0,0,    NaN,8.37,8.45,8.38,0,0,1,1,11,32.9430368,-106.9145895,1389,2022,6,23,19,5,47,0,0,0,0,1.6,1,1.2,0,31,0,0,32,43,0,0,0,0,33,34,0,0,19,0,0,38,0,33,0,0,0,0,43,0,0,0,29,0,30,0
6,6614,2,VK3TRK,0.24,3,   boost,103.95,86419,1322.03,4.35,     NaN,42.5,8.41,8.4,4.09,0,10.58,0,135.26,135.44,0,0,0,0,    NaN,8.37,8.45,8.38,0,0,1,1,11,32.9430368,-106.9145895,1389,2022,6,23,19,5,47,0,0,0,0,1.6,1,1.2,0,31,0,0,32,43,0,0,0,0,33,34,0,0,19,0,0,38,0,33,0,0,0,0,43,0,0,0,29,0,30,0
6,6614,2,VK3TRK,0.25,3,   boost,101.99,86402,1323.64,5.96,     NaN,42.5,8.41,8.4,4.09,0,10.58,0,135.26,135.44,0,0,0,0,    NaN,8.37,8.45,8.38,0,0,1,1,11,32.9430368,-106.9145895,1389,2022,6,23,19,5,47,0,0,0,0,1.6,1,1.2,0,31,0,0,32,43,0,0,0,0,33,34,0,0,19,0,0,38,0,33,0,0,0,0,43,0,0,0,29,0,30,0
6,6614,2,VK3TRK,0.26,3,   boost,106.4,86397,1324.12,6.44,     NaN,42.5,8.41,8.4,4.09,0,10.58,0,135.26,135.44,0,0,0,0,    NaN,8.37,8.45,8.38,0,0,1,1,11,32.9430368,-106.9145895,1389,2022,6,23,19,5,47,0,0,0,0,1.6,1,1.2,0,31,0,0,32,43,0,0,0,0,33,34,0,0,19,0,0,38,0,33,0,0,0,0,43,0,0,0,29,0,30,0
6,6614,2,VK3TRK,0.27,3,   boost,104.44,86401,1323.74,6.06,     NaN,42.5,8.41,8.4,4.09,0,10.58,0,135.26,135.44,0,0,0,0,    NaN,8.37,8.45,8.38,0,0,1,1,11,32.9430368,-106.9145895,1389,2022,6,23,19,5,47,0,0,0,0,1.6,1,1.2,0,31,0,0,32,43,0,0,0,0,33,34,0,0,19,0,0,38,0,33,0,0,0,0,43,0,0,0,29,0,30,0
6,6614,2,VK3TRK,0.28,3,   boost,100.52,86392,1324.59,6.91,     NaN,42.5,8.41,8.4,4.09,0,10.58,0,135.26,135.44,0,0,0,0,    NaN,8.37,8.45,8.38,0,0,1,1,11,32.9430368,-106.9145895,1389,2022,6,23,19,5,47,0,0,0,0,1.6,1,1.2,0,31,0,0,32,43,0,0,0,0,33,34,0,0,19,0,0,38,0,33,0,0,0,0,43,0,0,0,29,0,30,0
6,6614,2,VK3TRK,0.29,3,   boost,104.44,86390,1324.78,7.1,     NaN,42.5,8.41,8.4,4.09,0,10.58,0,135.26,135.44,0,0,0,0,    NaN,8.37,8.45,8.38,0,0,1,1,11,32.9430368,-106.9145895,1389,2022,6,23,19,5,47,0,0,0,0,1.6,1,1.2,0,31,0,0,32,43,0,0,0,0,33,34,0,0,19,0,0,38,0,33,0,0,0,0,43,0,0,0,29,0,30,0
6,6614,2,VK3TRK,0.3,3,   boost,99.54,86370,1326.67,9,     NaN,42.5,8.41,8.4,4.09,0,10.58,0,135.26,135.44,0,0,0,0,    NaN,8.37,8.45,8.38,0,0,1,1,11,32.9430368,-106.9145895,1389,2022,6,23,19,5,47,0,0,0,0,1.6,1,1.2,0,31,0,0,32,43,0,0,0,0,33,34,0,0,19,0,0,38,0,33,0,0,0,0,43,0,0,0,29,0,30,0
6,6614,2,VK3TRK,0.31,3,   boost,101.5,86413,1322.6,4.92,     NaN,42.5,8.41,8.4,4.09,0,10.58,0,135.26,135.44,0,0,0,0,    NaN,8.37,8.45,8.38,0,0,1,1,11,32.9430368,-106.9145895,1389,2022,6,23,19,5,47,0,0,0,0,1.6,1,1.2,0,31,0,0,32,43,0,0,0,0,33,34,0,0,19,0,0,38,0,33,0,0,0,0,43,0,0,0,29,0,30,0
6,6614,2,VK3TRK,0.32,3,   boost,101.5,86383,1325.44,7.76,     NaN,42.5,8.41,8.4,4.09,0,10.58,0,135.26,135.44,0,0,0,0,    NaN,8.37,8.45,8.38,0,0,1,1,11,32.9430368,-106.9145895,1389,2022,6,23,19,5,47,0,0,0,0,1.6,1,1.2,0,31,0,0,32,43,0,0,0,0,33,34,0,0,19,0,0,38,0,33,0,0,0,0,43,0,0,0,29,0,30,0
6,6614,2,VK3TRK,0.33,3,   boost,101.01,86373,1326.39,8.71,     NaN,42.5,8.41,8.4,4.09,0,10.58,0,135.26,135.44,0,0,0,0,    NaN,8.37,8.45,8.38,0,0,1,1,11,32.9430368,-106.9145895,1389,2022,6,23,19,5,47,0,0,0,0,1.6,1,1.2,0,31,0,0,32,43,0,0,0,0,33,34,0,0,19,0,0,38,0,33,0,0,0,0,43,0,0,0,29,0,30,0
6,6614,2,VK3TRK,0.34,3,   boost,106.4,86375,1326.2,8.52,     NaN,42.5,8.42,8.38,4.09,0,10.58,0,135.26,135.44,0,0,0,0,    NaN,8.37,8.43,8.37,0,0,1,1,11,32.9430368,-106.9145895,1389,2022,6,23,19,5,47,0,0,0,0,1.6,1,1.2,0,31,0,0,32,43,0,0,0,0,33,34,0,0,19,0,0,38,0,33,0,0,0,0,43,0,0,0,29,0,30,0
6,6614,2,VK3TRK,0.34,3,   boost,106.4,86375,1326.2,8.52,     NaN,42.5,8.42,8.38,4.09,0,10.58,0,135.26,135.44,0,0,0,0,    NaN,8.37,8.43,8.37,0,0,1,1,11,32.9430368,-106.9145895,1389,2022,6,23,19,5,47,0,0,0,0,1.6,1,1.2,0,31,0,0,32,43,0,0,0,0,33,34,0,0,19,0,0,38,0,33,0,0,0,0,43,0,0,0,29,0,30,0
6,6614,2,VK3TRK,0.35,3,   boost,102.97,86365,1327.15,9.47,     NaN,42.5,8.42,8.38,4.09,0,10.57,0,135.01,135.62,0,0,0,0,    NaN,8.37,8.43,8.37,0,0,1,1,11,32.9430368,-106.9145895,1389,2022,6,23,19,5,47,0,0,0,0,1.6,1,1.2,0,31,0,0,32,43,0,0,0,0,33,34,0,0,19,0,0,38,0,33,0,0,0,0,43,0,0,0,29,0,30,0
6,6614,2,VK3TRK,0.36,3,   boost,104.93,86369,1326.77,9.09,     NaN,42.5,8.42,8.38,4.09,0,10.57,0,135.01,135.62,0,0,0,0,    NaN,8.37,8.43,8.37,0,0,1,1,11,32.9430368,-106.9145895,1389,2022,6,23,19,5,47,0,0,0,0,1.6,1,1.2,0,31,0,0,32,43,0,0,0,0,33,34,0,0,19,0,0,38,0,33,0,0,0,0,43,0,0,0,29,0,30,0
6,6614,2,VK3TRK,0.37,3,   boost,103.95,86344,1329.14,11.46,     NaN,42.5,8.42,8.38,4.09,0,10.57,0,135.01,135.62,0,0,0,0,    NaN,8.37,8.43,8.37,0,0,1,1,11,32.9430368,-106.9145895,1389,2022,6,23,19,5,47,0,0,0,0,1.6,1,1.2,0,31,0,0,32,43,0,0,0,0,33,34,0,0,19,0,0,38,0,33,0,0,0,0,43,0,0,0,29,0,30,0
6,6614,2,VK3TRK,0.38,3,   boost,101.5,86354,1328.19,10.51,     NaN,42.5,8.42,8.38,4.09,0,10.57,0,135.01,135.62,0,0,0,0,    NaN,8.37,8.43,8.37,0,0,1,1,11,32.9430368,-106.9145895,1389,2022,6,23,19,5,47,0,0,0,0,1.6,1,1.2,0,31,0,0,32,43,0,0,0,0,33,34,0,0,19,0,0,38,0,33,0,0,0,0,43,0,0,0,29,0,30,0
6,6614,2,VK3TRK,0.39,3,   boost,101.99,86367,1326.96,9.28,     NaN,42.5,8.42,8.38,4.09,0,10.57,0,135.01,135.62,0,0,0,0,    NaN,8.37,8.43,8.37,0,0,1,1,11,32.9430368,-106.9145895,1389,2022,6,23,19,5,47,0,0,0,0,1.6,1,1.2,0,31,0,0,32,43,0,0,0,0,33,34,0,0,19,0,0,38,0,33,0,0,0,0,43,0,0,0,29,0,30,0
6,6614,2,VK3TRK,0.4,3,   boost,101.01,86350,1328.57,10.89,     NaN,42.5,8.42,8.38,4.09,0,10.57,0,135.01,135.62,0,0,0,0,    NaN,8.37,8.43,8.37,0,0,1,1,11,32.9430368,-106.9145895,1389,2022,6,23,19,5,47,0,0,0,0,1.6,1,1.2,0,31,0,0,32,43,0,0,0,0,33,34,0,0,19,0,0,38,0,33,0,0,0,0,43,0,0,0,29,0,30,0
6,6614,2,VK3TRK,0.41,3,   boost,101.01,86337,1329.8,12.12,     NaN,42.5,8.42,8.38,4.09,0,10.57,0,135.01,135.62,0,0,0,0,    NaN,8.37,8.43,8.37,0,0,1,1,11,32.9430368,-106.9145895,1389,2022,6,23,19,5,47,0,0,0,0,1.6,1,1.2,0,31,0,0,32,43,0,0,0,0,33,34,0,0,19,0,0,38,0,33,0,0,0,0,43,0,0,0,29,0,30,0
6,6614,2,VK3TRK,0.42,3,   boost,102.48,86325,1330.94,13.26,     NaN,42.5,8.42,8.38,4.09,0,10.57,0,135.01,135.62,0,0,0,0,    NaN,8.37,8.43,8.37,0,0,1,1,11,32.9430368,-106.9145895,1389,2022,6,23,19,5,47,0,0,0,0,1.6,1,1.2,0,31,0,0,32,43,0,0,0,0,33,34,0,0,19,0,0,38,0,33,0,0,0,0,43,0,0,0,29,0,30,0
6,6614,2,VK3TRK,0.43,3,   boost,105.42,86334,1330.09,12.41,     NaN,42.5,8.42,8.38,4.09,0,10.57,0,135.01,135.62,0,0,0,0,    NaN,8.37,8.43,8.37,0,0,1,1,11,32.9430368,-106.9145895,1389,2022,6,23,19,5,47,0,0,0,0,1.6,1,1.2,0,31,0,0,32,43,0,0,0,0,33,34,0,0,19,0,0,38,0,33,0,0,0,0,43,0,0,0,29,0,30,0
6,6614,2,VK3TRK,0.44,3,   boost,103.46,86324,1331.03,13.35,     NaN,42.5,8.42,8.38,4.09,0,10.57,0,135.01,135.62,0,0,0,0,    NaN,8.37,8.43,8.37,0,0,1,1,11,32.9430368,-106.9145895,1389,2022,6,23,19,5,47,0,0,0,0,1.6,1,1.2,0,31,0,0,32,43,0,0,0,0,33,34,0,0,19,0,0,38,0,33,0,0,0,0,43,0,0,0,29,0,30,0
6,6614,2,VK3TRK,0.45,3,   boost,100.52,86319,1331.51,13.83,     NaN,42.5,8.42,8.38,4.09,0,10.57,0,135.01,135.62,0,0,0,0,    NaN,8.37,8.43,8.37,0,0,1,1,11,32.9430368,-106.9145895,1389,2022,6,23,19,5,47,0,0,0,0,1.6,1,1.2,0,31,0,0,32,43,0,0,0,0,33,34,0,0,19,0,0,38,0,33,0,0,0,0,43,0,0,0,29,0,30,0
6,6614,2,VK3TRK,0.46,3,   boost,101.5,86324,1331.03,13.35,     NaN,42.5,8.42,8.38,4.09,0,10.57,0,135.01,135.62,0,0,0,0,    NaN,8.37,8.43,8.37,0,0,1,1,11,32.9430368,-106.9145895,1389,2022,6,23,19,5,47,0,0,0,0,1.6,1,1.2,0,31,0,0,32,43,0,0,0,0,33,34,0,0,19,0,0,38,0,33,0,0,0,0,43,0,0,0,29,0,30,0
6,6614,2,VK3TRK,0.47,3,   boost,103.46,86318,1331.6,13.92,     NaN,42.5,8.42,8.38,4.09,0,10.57,0,135.01,135.62,0,0,0,0,    NaN,8.37,8.43,8.37,0,0,1,1,11,32.9430368,-106.9145895,1389,2022,6,23,19,5,47,0,0,0,0,1.6,1,1.2,0,31,0,0,32,43,0,0,0,0,33,34,0,0,19,0,0,38,0,33,0,0,0,0,43,0,0,0,29,0,30,0
6,6614,2,VK3TRK,0.48,3,   boost,105.42,86316,1331.79,14.11,     NaN,42.5,8.42,8.38,4.09,0,10.57,0,135.01,135.62,0,0,0,0,    NaN,8.37,8.43,8.37,0,0,1,1,11,32.9430368,-106.9145895,1389,2022,6,23,19,5,47,0,0,0,0,1.6,1,1.2,0,31,0,0,32,43,0,0,0,0,33,34,0,0,19,0,0,38,0,33,0,0,0,0,43,0,0,0,29,0,30,0
6,6614,2,VK3TRK,0.49,3,   boost,101.99,86314,1331.98,14.3,     NaN,42.5,8.42,8.38,4.09,0,10.57,0,135.01,135.62,0,0,0,0,    NaN,8.37,8.43,8.37,0,0,1,1,11,32.9430368,-106.9145895,1389,2022,6,23,19,5,47,0,0,0,0,1.6,1,1.2,0,31,0,0,32,43,0,0,0,0,33,34,0,0,19,0,0,38,0,33,0,0,0,0,43,0,0,0,29,0,30,0
6,6614,2,VK3TRK,0.5,3,   boost,102.97,86295,1333.78,16.1,     NaN,42.5,8.42,8.38,4.09,0,10.57,0,135.01,135.62,0,0,0,0,    NaN,8.37,8.43,8.37,0,0,1,1,11,32.9430368,-106.9145895,1389,2022,6,23,19,5,47,0,0,0,0,1.6,1,1.2,0,31,0,0,32,43,0,0,0,0,33,34,0,0,19,0,0,38,0,33,0,0,0,0,43,0,0,0,29,0,30,0
6,6614,2,VK3TRK,0.51,3,   boost,104.44,86285,1334.73,17.05,     NaN,42.5,8.42,8.38,4.09,0,10.57,0,135.01,135.62,0,0,0,0,    NaN,8.37,8.43,8.37,0,0,1,1,11,32.9430368,-106.9145895,1389,2022,6,23,19,5,47,0,0,0,0,1.6,1,1.2,0,31,0,0,32,43,0,0,0,0,33,34,0,0,19,0,0,38,0,33,0,0,0,0,43,0,0,0,29,0,30,0
6,6614,2,VK3TRK,0.52,3,   boost,103.95,86285,1334.73,17.05,     NaN,42.5,8.42,8.38,4.09,0,10.57,0,135.01,135.62,0,0,0,0,    NaN,8.37,8.43,8.37,0,0,1,1,11,32.9430368,-106.9145895,1389,2022,6,23,19,5,47,0,0,0,0,1.6,1,1.2,0,31,0,0,32,43,0,0,0,0,33,34,0,0,19,0,0,38,0,33,0,0,0,0,43,0,0,0,29,0,30,0
6,6614,2,VK3TRK,0.53,3,   boost,102.97,86276,1335.58,17.9,     NaN,42.5,8.42,8.38,4.09,0,10.57,0,135.01,135.62,0,0,0,0,    NaN,8.37,8.43,8.37,0,0,1,1,11,32.9430368,-106.9145895,1389,2022,6,23,19,5,47,0,0,0,0,1.6,1,1.2,0,31,0,0,32,43,0,0,0,0,33,34,0,0,19,0,0,38,0,33,0,0,0,0,43,0,0,0,29,0,30,0
6,6614,2,VK3TRK,0.54,3,   boost,103.46,86266,1336.53,18.85,     NaN,42.5,8.42,8.38,4.09,0,10.57,0,135.01,135.62,0,0,0,0,    NaN,8.37,8.43,8.37,0,0,1,1,11,32.9430368,-106.9145895,1389,2022,6,23,19,5,47,0,0,0,0,1.6,1,1.2,0,31,0,0,32,43,0,0,0,0,33,34,0,0,19,0,0,38,0,33,0,0,0,0,43,0,0,0,29,0,30,0
6,6614,2,VK3TRK,0.55,3,   boost,102.97,86258,1337.29,19.61,     NaN,42.5,8.42,8.38,4.09,0,10.57,0,135.01,135.62,0,0,0,0,    NaN,8.37,8.43,8.37,0,0,1,1,11,32.9430368,-106.9145895,1389,2022,6,23,19,5,47,0,0,0,0,1.6,1,1.2,0,31,0,0,32,43,0,0,0,0,33,34,0,0,19,0,0,38,0,33,0,0,0,0,43,0,0,0,29,0,30,0
6,6614,2,VK3TRK,0.56,3,   boost,106.4,86258,1337.29,19.61,     NaN,42.5,8.42,8.38,4.09,0,10.57,0,135.01,135.62,0,0,0,0,    NaN,8.37,8.43,8.37,0,0,1,1,11,32.9430368,-106.9145895,1389,2022,6,23,19,5,47,0,0,0,0,1.6,1,1.2,0,31,0,0,32,43,0,0,0,0,33,34,0,0,19,0,0,38,0,33,0,0,0,0,43,0,0,0,29,0,30,0
6,6614,2,VK3TRK,0.57,3,   boost,106.4,86256,1337.48,19.8,     NaN,42.5,8.42,8.38,4.09,0,10.57,0,135.01,135.62,0,0,0,0,    NaN,8.37,8.43,8.37,0,0,1,1,11,32.9430368,-106.9145895,1389,2022,6,23,19,5,47,0,0,0,0,1.6,1,1.2,0,31,0,0,32,43,0,0,0,0,33,34,0,0,19,0,0,38,0,33,0,0,0,0,43,0,0,0,29,0,30,0
6,6614,2,VK3TRK,0.58,3,   boost,104.44,86258,1337.29,19.61,     NaN,42.5,8.42,8.38,4.09,0,10.57,0,135.01,135.62,0,0,0,0,    NaN,8.37,8.43,8.37,0,0,1,1,11,32.9430406,-106.9145738,1389,2022,6,23,19,5,48,2,2,74,0,1.6,1,1.2,0,31,0,0,34,36,0,0,0,0,33,23,0,0,19,0,0,28,0,28,0,0,0,0,36,0,0,0,21,0,24,0
6,6614,2,VK3TRK,0.58,3,   boost,104.44,86258,1337.29,19.61,     NaN,42.5,8.42,8.38,4.09,0,10.57,0,135.01,135.62,0,0,0,0,    NaN,8.37,8.43,8.37,0,0,1,1,11,32.9430406,-106.9145738,1389,2022,6,23,19,5,48,2,2,74,0,1.6,1,1.2,0,31,0,0,34,36,0,0,0,0,33,23,0,0,19,0,0,28,0,28,0,0,0,0,36,0,0,0,21,0,24,0
6,6614,2,VK3TRK,0.58,3,   boost,104.44,86258,1337.29,19.61,     NaN,42.5,8.42,8.38,4.09,0,10.57,0,135.01,135.62,0,0,0,0,    NaN,8.37,8.43,8.37,0,0,1,1,11,32.9430406,-106.9145738,1389,2022,6,23,19,5,48,2,2,74,0,1.6,1,1.2,0,31,0,0,34,36,0,0,0,0,33,23,0,0,19,0,0,28,0,28,0,0,0,0,36,0,0,0,21,0,24,0
6,6614,2,VK3TRK,0.59,3,   boost,103.95,86228,1340.14,22.46,     NaN,42.5,8.42,8.38,4.09,0,10.57,0,135.01,135.62,0,0,0,0,    NaN,8.37,8.43,8.37,0,0,1,1,11,32.9430406,-106.9145738,1389,2022,6,23,19,5,48,2,2,74,0,1.6,1,1.2,0,31,0,0,34,36,0,0,0,0,33,23,0,0,19,0,0,28,0,28,0,0,0,0,36,0,0,0,21,0,24,0
6,6614,2,VK3TRK,0.6,3,   boost,102.97,86230,1339.95,22.27,     NaN,42.5,8.42,8.38,4.09,0,10.57,0,135.01,135.62,0,0,0,0,    NaN,8.37,8.43,8.37,0,0,1,1,11,32.9430406,-106.9145738,1389,2022,6,23,19,5,48,2,2,74,0,1.6,1,1.2,0,31,0,0,34,36,0,0,0,0,33,23,0,0,19,0,0,28,0,28,0,0,0,0,36,0,0,0,21,0,24,0
6,6614,2,VK3TRK,0.61,3,   boost,104.93,86232,1339.76,22.08,     NaN,42.5,8.42,8.38,4.09,0,10.57,0,135.01,135.62,0,0,0,0,    NaN,8.37,8.43,8.37,0,0,1,1,11,32.9430406,-106.9145738,1389,2022,6,23,19,5,48,2,2,74,0,1.6,1,1.2,0,31,0,0,34,36,0,0,0,0,33,23,0,0,19,0,0,28,0,28,0,0,0,0,36,0,0,0,21,0,24,0
6,6614,2,VK3TRK,0.62,3,   boost,100.03,86213,1341.56,23.88,     NaN,42.5,8.42,8.38,4.09,0,10.57,0,135.01,135.62,0,0,0,0,    NaN,8.37,8.43,8.37,0,0,1,1,11,32.9430406,-106.9145738,1389,2022,6,23,19,5,48,2,2,74,0,1.6,1,1.2,0,31,0,0,34,36,0,0,0,0,33,23,0,0,19,0,0,28,0,28,0,0,0,0,36,0,0,0,21,0,24,0
6,6614,2,VK3TRK,0.63,3,   boost,103.95,86212,1341.65,23.97,     NaN,42.5,8.42,8.38,4.09,0,10.57,0,135.01,135.62,0,0,0,0,    NaN,8.37,8.43,8.37,0,0,1,1,11,32.9430406,-106.9145738,1389,2022,6,23,19,5,48,2,2,74,0,1.6,1,1.2,0,31,0,0,34,36,0,0,0,0,33,23,0,0,19,0,0,28,0,28,0,0,0,0,36,0,0,0,21,0,24,0
6,6614,2,VK3TRK,0.64,3,   boost,102.97,86208,1342.03,24.35,     NaN,42.5,8.42,8.38,4.09,0,10.57,0,135.01,135.62,0,0,0,0,    NaN,8.37,8.43,8.37,0,0,1,1,11,32.9430406,-106.9145738,1389,2022,6,23,19,5,48,2,2,74,0,1.6,1,1.2,0,31,0,0,34,36,0,0,0,0,33,23,0,0,19,0,0,28,0,28,0,0,0,0,36,0,0,0,21,0,24,0
6,6614,2,VK3TRK,0.65,3,   boost,107.87,86186,1344.12,26.44,     NaN,42.5,8.42,8.38,4.09,0,10.57,0,135.01,135.62,0,0,0,0,    NaN,8.37,8.43,8.37,0,0,1,1,11,32.9430406,-106.9145738,1389,2022,6,23,19,5,48,2,2,74,0,1.6,1,1.2,0,31,0,0,34,36,0,0,0,0,33,23,0,0,19,0,0,28,0,28,0,0,0,0,36,0,0,0,21,0,24,0
6,6614,2,VK3TRK,0.66,3,   boost,103.46,86192,1343.55,25.87,     NaN,42.5,8.43,8.4,4.09,0,10.57,0,135.01,135.62,0,0,0,0,    NaN,8.37,8.43,8.36,0.11,0,1,1,11,32.9430406,-106.9145738,1389,2022,6,23,19,5,48,2,2,74,0,1.6,1,1.2,0,31,0,0,34,36,0,0,0,0,33,23,0,0,19,0,0,28,0,28,0,0,0,0,36,0,0,0,21,0,24,0
6,6614,2,VK3TRK,0.66,3,   boost,103.46,86192,1343.55,25.87,     NaN,42.5,8.43,8.4,4.09,0,10.57,0,135.01,135.62,0,0,0,0,    NaN,8.37,8.43,8.36,0.11,0,1,1,11,32.9430406,-106.9145738,1389,2022,6,23,19,5,48,2,2,74,0,1.6,1,1.2,0,31,0,0,34,36,0,0,0,0,33,23,0,0,19,0,0,28,0,28,0,0,0,0,36,0,0,0,21,0,24,0
6,6614,2,VK3TRK,0.67,3,   boost,102.97,86191,1343.65,25.97,     NaN,42.5,8.43,8.4,4.09,0.14,10.56,0,135.26,135.75,0,0,0,0,    NaN,8.37,8.43,8.36,0.11,0,1,1,11,32.9430406,-106.9145738,1389,2022,6,23,19,5,48,2,2,74,0,1.6,1,1.2,0,31,0,0,34,36,0,0,0,0,33,23,0,0,19,0,0,28,0,28,0,0,0,0,36,0,0,0,21,0,24,0
6,6614,2,VK3TRK,0.68,3,   boost,104.44,86177,1344.97,27.3,     NaN,42.5,8.43,8.4,4.09,0.14,10.56,0,135.26,135.75,0,0,0,0,    NaN,8.37,8.43,8.36,0.11,0,1,1,11,32.9430406,-106.9145738,1389,2022,6,23,19,5,48,2,2,74,0,1.6,1,1.2,0,31,0,0,34,36,0,0,0,0,33,23,0,0,19,0,0,28,0,28,0,0,0,0,36,0,0,0,21,0,24,0
6,6614,2,VK3TRK,0.69,3,   boost,105.91,86170,1345.64,27.96,     NaN,42.5,8.43,8.4,4.09,0.14,10.56,0,135.26,135.75,0,0,0,0,    NaN,8.37,8.43,8.36,0.11,0,1,1,11,32.9430406,-106.9145738,1389,2022,6,23,19,5,48,2,2,74,0,1.6,1,1.2,0,31,0,0,34,36,0,0,0,0,33,23,0,0,19,0,0,28,0,28,0,0,0,0,36,0,0,0,21,0,24,0
6,6614,2,VK3TRK,0.7,3,   boost,105.91,86163,1346.3,28.62,     NaN,42.5,8.43,8.4,4.09,0.14,10.56,0,135.26,135.75,0,0,0,0,    NaN,8.37,8.43,8.36,0.11,0,1,1,11,32.9430406,-106.9145738,1389,2022,6,23,19,5,48,2,2,74,0,1.6,1,1.2,0,31,0,0,34,36,0,0,0,0,33,23,0,0,19,0,0,28,0,28,0,0,0,0,36,0,0,0,21,0,24,0
6,6614,2,VK3TRK,0.71,3,   boost,101.99,86147,1347.82,30.14,     NaN,42.5,8.43,8.4,4.09,0.14,10.56,0,135.26,135.75,0,0,0,0,    NaN,8.37,8.43,8.36,0.11,0,1,1,11,32.9430406,-106.9145738,1389,2022,6,23,19,5,48,2,2,74,0,1.6,1,1.2,0,31,0,0,34,36,0,0,0,0,33,23,0,0,19,0,0,28,0,28,0,0,0,0,36,0,0,0,21,0,24,0
6,6614,2,VK3TRK,0.72,3,   boost,104.44,86142,1348.3,30.62,     NaN,42.5,8.43,8.4,4.09,0.14,10.56,0,135.26,135.75,0,0,0,0,    NaN,8.37,8.43,8.36,0.11,0,1,1,11,32.9430406,-106.9145738,1389,2022,6,23,19,5,48,2,2,74,0,1.6,1,1.2,0,31,0,0,34,36,0,0,0,0,33,23,0,0,19,0,0,28,0,28,0,0,0,0,36,0,0,0,21,0,24,0
6,6614,2,VK3TRK,0.73,3,   boost,105.42,86133,1349.15,31.47,     NaN,42.5,8.43,8.4,4.09,0.14,10.56,0,135.26,135.75,0,0,0,0,    NaN,8.37,8.43,8.36,0.11,0,1,1,11,32.9430406,-106.9145738,1389,2022,6,23,19,5,48,2,2,74,0,1.6,1,1.2,0,31,0,0,34,36,0,0,0,0,33,23,0,0,19,0,0,28,0,28,0,0,0,0,36,0,0,0,21,0,24,0
6,6614,2,VK3TRK,0.74,3,   boost,103.46,86116,1350.77,33.09,     NaN,42.5,8.43,8.4,4.09,0.14,10.56,0,135.26,135.75,0,0,0,0,    NaN,8.37,8.43,8.36,0.11,0,1,1,11,32.9430406,-106.9145738,1389,2022,6,23,19,5,48,2,2,74,0,1.6,1,1.2,0,31,0,0,34,36,0,0,0,0,33,23,0,0,19,0,0,28,0,28,0,0,0,0,36,0,0,0,21,0,24,0
6,6614,2,VK3TRK,0.75,3,   boost,103.95,86120,1350.39,32.71,     NaN,42.5,8.43,8.4,4.09,0.14,10.56,0,135.26,135.75,0,0,0,0,    NaN,8.37,8.43,8.36,0.11,0,1,1,11,32.9430406,-106.9145738,1389,2022,6,23,19,5,48,2,2,74,0,1.6,1,1.2,0,31,0,0,34,36,0,0,0,0,33,23,0,0,19,0,0,28,0,28,0,0,0,0,36,0,0,0,21,0,24,0
6,6614,2,VK3TRK,0.76,3,   boost,101.99,86117,1350.67,32.99,     NaN,42.5,8.43,8.4,4.09,0.14,10.56,0,135.26,135.75,0,0,0,0,    NaN,8.37,8.43,8.36,0.11,0,1,1,11,32.9430406,-106.9145738,1389,2022,6,23,19,5,48,2,2,74,0,1.6,1,1.2,0,31,0,0,34,36,0,0,0,0,33,23,0,0,19,0,0,28,0,28,0,0,0,0,36,0,0,0,21,0,24,0
6,6614,2,VK3TRK,0.77,3,   boost,104.93,86090,1353.23,35.56,     NaN,42.5,8.43,8.4,4.09,0.14,10.56,0,135.26,135.75,0,0,0,0,    NaN,8.37,8.43,8.36,0.11,0,1,1,11,32.9430406,-106.9145738,1389,2022,6,23,19,5,48,2,2,74,0,1.6,1,1.2,0,31,0,0,34,36,0,0,0,0,33,23,0,0,19,0,0,28,0,28,0,0,0,0,36,0,0,0,21,0,24,0
6,6614,2,VK3TRK,0.78,3,   boost,104.44,86086,1353.61,35.94,     NaN,42.5,8.43,8.4,4.09,0.14,10.56,0,135.26,135.75,0,0,0,0,    NaN,8.37,8.43,8.36,0.11,0,1,1,11,32.9430406,-106.9145738,1389,2022,6,23,19,5,48,2,2,74,0,1.6,1,1.2,0,31,0,0,34,36,0,0,0,0,33,23,0,0,19,0,0,28,0,28,0,0,0,0,36,0,0,0,21,0,24,0
6,6614,2,VK3TRK,0.79,3,   boost,102.97,86088,1353.42,35.75,     NaN,42.5,8.43,8.4,4.09,0.14,10.56,0,135.26,135.75,0,0,0,0,    NaN,8.37,8.43,8.36,0.11,0,1,1,11,32.9430406,-106.9145738,1389,2022,6,23,19,5,48,2,2,74,0,1.6,1,1.2,0,31,0,0,34,36,0,0,0,0,33,23,0,0,19,0,0,28,0,28,0,0,0,0,36,0,0,0,21,0,24,0
6,6614,2,VK3TRK,0.8,3,   boost,103.46,86081,1354.09,36.41,     NaN,42.5,8.43,8.4,4.09,0.14,10.56,0,135.26,135.75,0,0,0,0,    NaN,8.37,8.43,8.36,0.11,0,1,1,11,32.9430406,-106.9145738,1389,2022,6,23,19,5,48,2,2,74,0,1.6,1,1.2,0,31,0,0,34,36,0,0,0,0,33,23,0,0,19,0,0,28,0,28,0,0,0,0,36,0,0,0,21,0,24,0
6,6614,2,VK3TRK,0.81,3,   boost,103.95,86064,1355.7,38.03,     NaN,42.5,8.43,8.4,4.09,0.14,10.56,0,135.26,135.75,0,0,0,0,    NaN,8.37,8.43,8.36,0.11,0,1,1,11,32.9430406,-106.9145738,1389,2022,6,23,19,5,48,2,2,74,0,1.6,1,1.2,0,31,0,0,34,36,0,0,0,0,33,23,0,0,19,0,0,28,0,28,0,0,0,0,36,0,0,0,21,0,24,0
6,6614,2,VK3TRK,0.82,3,   boost,104.93,86066,1355.51,37.84,     NaN,42.5,8.43,8.4,4.09,0.14,10.56,0,135.26,135.75,0,0,0,0,    NaN,8.37,8.43,8.36,0.11,0,1,1,11,32.9430406,-106.9145738,1389,2022,6,23,19,5,48,2,2,74,0,1.6,1,1.2,0,31,0,0,34,36,0,0,0,0,33,23,0,0,19,0,0,28,0,28,0,0,0,0,36,0,0,0,21,0,24,0
6,6614,2,VK3TRK,0.83,3,   boost,101.99,86044,1357.6,39.93,     NaN,42.5,8.43,8.4,4.09,0.14,10.56,0,135.26,135.75,0,0,0,0,    NaN,8.37,8.43,8.36,0.11,0,1,1,11,32.9430406,-106.9145738,1389,2022,6,23,19,5,48,2,2,74,0,1.6,1,1.2,0,31,0,0,34,36,0,0,0,0,33,23,0,0,19,0,0,28,0,28,0,0,0,0,36,0,0,0,21,0,24,0
6,6614,2,VK3TRK,0.84,3,   boost,103.95,86033,1358.65,40.97,     NaN,42.5,8.43,8.4,4.09,0.14,10.56,0,135.26,135.75,0,0,0,0,    NaN,8.37,8.43,8.36,0.11,0,1,1,11,32.9430406,-106.9145738,1389,2022,6,23,19,5,48,2,2,74,0,1.6,1,1.2,0,31,0,0,34,36,0,0,0,0,33,23,0,0,19,0,0,28,0,28,0,0,0,0,36,0,0,0,21,0,24,0
6,6614,2,VK3TRK,0.85,3,   boost,106.89,86017,1360.17,42.49,     NaN,42.5,8.43,8.4,4.09,0.14,10.56,0,135.26,135.75,0,0,0,0,    NaN,8.37,8.43,8.36,0.11,0,1,1,11,32.9430406,-106.9145738,1389,2022,6,23,19,5,48,2,2,74,0,1.6,1,1.2,0,31,0,0,34,36,0,0,0,0,33,23,0,0,19,0,0,28,0,28,0,0,0,0,36,0,0,0,21,0,24,0
6,6614,2,VK3TRK,0.86,3,   boost,102.97,86021,1359.79,42.11,     NaN,42.5,8.43,8.4,4.09,0.14,10.56,0,135.26,135.75,0,0,0,0,    NaN,8.37,8.43,8.36,0.11,0,1,1,11,32.9430406,-106.9145738,1389,2022,6,23,19,5,48,2,2,74,0,1.6,1,1.2,0,31,0,0,34,36,0,0,0,0,33,23,0,0,19,0,0,28,0,28,0,0,0,0,36,0,0,0,21,0,24,0
6,6614,2,VK3TRK,0.87,3,   boost,104.44,86014,1360.46,42.78,     NaN,42.5,8.43,8.4,4.09,0.14,10.56,0,135.26,135.75,0,0,0,0,    NaN,8.37,8.43,8.36,0.11,0,1,1,11,32.9430406,-106.9145738,1389,2022,6,23,19,5,48,2,2,74,0,1.6,1,1.2,0,31,0,0,34,36,0,0,0,0,33,23,0,0,19,0,0,28,0,28,0,0,0,0,36,0,0,0,21,0,24,0
6,6614,2,VK3TRK,0.88,3,   boost,105.91,85993,1362.45,44.77,     NaN,42.5,8.43,8.4,4.09,0.14,10.56,0,135.26,135.75,0,0,0,0,    NaN,8.37,8.43,8.36,0.11,0,1,1,11,32.9430406,-106.9145738,1389,2022,6,23,19,5,48,2,2,74,0,1.6,1,1.2,0,31,0,0,34,36,0,0,0,0,33,23,0,0,19,0,0,28,0,28,0,0,0,0,36,0,0,0,21,0,24,0
6,6614,2,VK3TRK,0.89,3,   boost,105.42,86000,1361.79,44.11,     NaN,42.5,8.43,8.4,4.09,0.14,10.56,0,135.26,135.75,0,0,0,0,    NaN,8.37,8.43,8.36,0.11,0,1,1,11,32.9430406,-106.9145738,1389,2022,6,23,19,5,48,2,2,74,0,1.6,1,1.2,0,31,0,0,34,36,0,0,0,0,33,23,0,0,19,0,0,28,0,28,0,0,0,0,36,0,0,0,21,0,24,0
6,6614,2,VK3TRK,0.9,3,   boost,102.97,85975,1364.16,46.48,     NaN,42.5,8.43,8.4,4.09,0.14,10.56,0,135.26,135.75,0,0,0,0,    NaN,8.37,8.43,8.36,0.11,0,1,1,11,32.9430406,-106.9145738,1389,2022,6,23,19,5,48,2,2,74,0,1.6,1,1.2,0,31,0,0,34,36,0,0,0,0,33,23,0,0,19,0,0,28,0,28,0,0,0,0,36,0,0,0,21,0,24,0
6,6614,2,VK3TRK,0.91,3,   boost,108.85,85969,1364.73,47.06,     NaN,42.5,8.43,8.4,4.09,0.14,10.56,0,135.26,135.75,0,0,0,0,    NaN,8.37,8.43,8.36,0.11,0,1,1,11,32.9430406,-106.9145738,1389,2022,6,23,19,5,48,2,2,74,0,1.6,1,1.2,0,31,0,0,34,36,0,0,0,0,33,23,0,0,19,0,0,28,0,28,0,0,0,0,36,0,0,0,21,0,24,0
6,6614,2,VK3TRK,0.92,3,   boost,104.44,85952,1366.35,48.67,     NaN,42.5,8.43,8.4,4.09,0.14,10.56,0,135.26,135.75,0,0,0,0,    NaN,8.37,8.43,8.36,0.11,0,1,1,11,32.9430406,-106.9145738,1389,2022,6,23,19,5,48,2,2,74,0,1.6,1,1.2,0,31,0,0,34,36,0,0,0,0,33,23,0,0,19,0,0,28,0,28,0,0,0,0,36,0,0,0,21,0,24,0
6,6614,2,VK3TRK,0.93,3,   boost,105.91,85957,1365.87,48.2,     NaN,42.5,8.43,8.4,4.09,0.14,10.56,0,135.26,135.75,0,0,0,0,    NaN,8.37,8.43,8.36,0.11,0,1,1,11,32.9430406,-106.9145738,1389,2022,6,23,19,5,48,2,2,74,0,1.6,1,1.2,0,31,0,0,34,36,0,0,0,0,33,23,0,0,19,0,0,28,0,28,0,0,0,0,36,0,0,0,21,0,24,0
6,6614,2,VK3TRK,0.94,3,   boost,107.38,85931,1368.35,50.67,     NaN,42.5,8.43,8.4,4.09,0.14,10.56,0,135.26,135.75,0,0,0,0,    NaN,8.37,8.43,8.36,0.11,0,1,1,11,32.9430406,-106.9145738,1389,2022,6,23,19,5,48,2,2,74,0,1.6,1,1.2,0,31,0,0,34,36,0,0,0,0,33,23,0,0,19,0,0,28,0,28,0,0,0,0,36,0,0,0,21,0,24,0
6,6614,2,VK3TRK,0.95,3,   boost,102.97,85941,1367.4,49.72,     NaN,42.5,8.43,8.4,4.09,0.14,10.56,0,135.26,135.75,0,0,0,0,    NaN,8.37,8.43,8.36,0.11,0,1,1,11,32.9430406,-106.9145738,1389,2022,6,23,19,5,48,2,2,74,0,1.6,1,1.2,0,31,0,0,34,36,0,0,0,0,33,23,0,0,19,0,0,28,0,28,0,0,0,0,36,0,0,0,21,0,24,0
6,6614,2,VK3TRK,0.96,3,   boost,107.38,85929,1368.54,50.86,     NaN,42.5,8.43,8.4,4.09,0.14,10.56,0,135.26,135.75,0,0,0,0,    NaN,8.37,8.43,8.36,0.11,0,1,1,11,32.9430406,-106.9145738,1389,2022,6,23,19,5,48,2,2,74,0,1.6,1,1.2,0,31,0,0,34,36,0,0,0,0,33,23,0,0,19,0,0,28,0,28,0,0,0,0,36,0,0,0,21,0,24,0
6,6614,2,VK3TRK,0.97,3,   boost,104.44,85914,1369.97,52.29,     NaN,42.5,8.43,8.4,4.09,0.14,10.56,0,135.26,135.75,0,0,0,0,    NaN,8.37,8.43,8.36,0.11,0,1,1,11,32.9430406,-106.9145738,1389,2022,6,23,19,5,48,2,2,74,0,1.6,1,1.2,0,31,0,0,34,36,0,0,0,0,33,23,0,0,19,0,0,28,0,28,0,0,0,0,36,0,0,0,21,0,24,0
6,6614,2,VK3TRK,0.98,3,   boost,104.93,85896,1371.68,54,     NaN,42.5,8.42,8.39,4.12,0.14,10.56,0,135.26,135.75,0,0,0,0,    NaN,8.39,8.45,8.38,0,0,1,1,11,32.9430406,-106.9145738,1389,2022,6,23,19,5,48,2,2,74,0,1.6,1,1.2,0,31,0,0,34,36,0,0,0,0,33,23,0,0,19,0,0,28,0,28,0,0,0,0,36,0,0,0,21,0,24,0
6,6614,2,VK3TRK,0.98,3,   boost,104.93,85896,1371.68,54,     NaN,42.5,8.42,8.39,4.12,0.14,10.56,0,135.26,135.75,0,0,0,0,    NaN,8.39,8.45,8.38,0,0,1,1,11,32.9430406,-106.9145738,1389,2022,6,23,19,5,48,2,2,74,0,1.6,1,1.2,0,31,0,0,34,36,0,0,0,0,33,23,0,0,19,0,0,28,0,28,0,0,0,0,36,0,0,0,21,0,24,0
6,6614,2,VK3TRK,0.99,3,   boost,105.91,85881,1373.11,55.43,     NaN,42.5,8.42,8.39,4.12,0,10.59,0,135.14,135.62,0,0,0,0,    NaN,8.39,8.45,8.38,0,0,1,1,11,32.9430406,-106.9145738,1389,2022,6,23,19,5,48,2,2,74,0,1.6,1,1.2,0,31,0,0,34,36,0,0,0,0,33,23,0,0,19,0,0,28,0,28,0,0,0,0,36,0,0,0,21,0,24,0
6,6614,2,VK3TRK,1,3,   boost,106.89,85876,1373.58,55.9,     NaN,42.5,8.42,8.39,4.12,0,10.59,0,135.14,135.62,0,0,0,0,    NaN,8.39,8.45,8.38,0,0,1,1,11,32.9430406,-106.9145738,1389,2022,6,23,19,5,48,2,2,74,0,1.6,1,1.2,0,31,0,0,34,36,0,0,0,0,33,23,0,0,19,0,0,28,0,28,0,0,0,0,36,0,0,0,21,0,24,0
6,6614,2,VK3TRK,1.01,3,   boost,104.93,85866,1374.53,56.85,     NaN,42.5,8.42,8.39,4.12,0,10.59,0,135.14,135.62,0,0,0,0,    NaN,8.39,8.45,8.38,0,0,1,1,11,32.9430406,-106.9145738,1389,2022,6,23,19,5,48,2,2,74,0,1.6,1,1.2,0,31,0,0,34,36,0,0,0,0,33,23,0,0,19,0,0,28,0,28,0,0,0,0,36,0,0,0,21,0,24,0
6,6614,2,VK3TRK,1.02,3,   boost,105.42,85860,1375.1,57.43,     NaN,42.5,8.42,8.39,4.12,0,10.59,0,135.14,135.62,0,0,0,0,    NaN,8.39,8.45,8.38,0,0,1,1,11,32.9430406,-106.9145738,1389,2022,6,23,19,5,48,2,2,74,0,1.6,1,1.2,0,31,0,0,34,36,0,0,0,0,33,23,0,0,19,0,0,28,0,28,0,0,0,0,36,0,0,0,21,0,24,0
6,6614,2,VK3TRK,1.03,3,   boost,107.87,85839,1377.1,59.42,     NaN,42.5,8.42,8.39,4.12,0,10.59,0,135.14,135.62,0,0,0,0,    NaN,8.39,8.45,8.38,0,0,1,1,11,32.9430406,-106.9145738,1389,2022,6,23,19,5,48,2,2,74,0,1.6,1,1.2,0,31,0,0,34,36,0,0,0,0,33,23,0,0,19,0,0,28,0,28,0,0,0,0,36,0,0,0,21,0,24,0
6,6614,2,VK3TRK,1.04,3,   boost,103.95,85837,1377.29,59.61,     NaN,42.5,8.42,8.39,4.12,0,10.59,0,135.14,135.62,0,0,0,0,    NaN,8.39,8.45,8.38,0,0,1,1,11,32.9430406,-106.9145738,1389,2022,6,23,19,5,48,2,2,74,0,1.6,1,1.2,0,31,0,0,34,36,0,0,0,0,33,23,0,0,19,0,0,28,0,28,0,0,0,0,36,0,0,0,21,0,24,0
6,6614,2,VK3TRK,1.05,3,   boost,105.42,85809,1379.96,62.28,     NaN,42.5,8.42,8.39,4.12,0,10.59,0,135.14,135.62,0,0,0,0,    NaN,8.39,8.45,8.38,0,0,1,1,11,32.9430406,-106.9145738,1389,2022,6,23,19,5,48,2,2,74,0,1.6,1,1.2,0,31,0,0,34,36,0,0,0,0,33,23,0,0,19,0,0,28,0,28,0,0,0,0,36,0,0,0,21,0,24,0
6,6614,2,VK3TRK,1.06,3,   boost,103.95,85824,1378.53,60.85,     NaN,42.5,8.42,8.39,4.12,0,10.59,0,135.14,135.62,0,0,0,0,    NaN,8.39,8.45,8.38,0,0,1,1,11,32.9430406,-106.9145738,1389,2022,6,23,19,5,48,2,2,74,0,1.6,1,1.2,0,31,0,0,34,36,0,0,0,0,33,23,0,0,19,0,0,28,0,28,0,0,0,0,36,0,0,0,21,0,24,0
6,6614,2,VK3TRK,1.07,3,   boost,104.93,85794,1381.39,63.71,     NaN,42.5,8.42,8.39,4.12,0,10.59,0,135.14,135.62,0,0,0,0,    NaN,8.39,8.45,8.38,0,0,1,1,11,32.9430406,-106.9145738,1389,2022,6,23,19,5,48,2,2,74,0,1.6,1,1.2,0,31,0,0,34,36,0,0,0,0,33,23,0,0,19,0,0,28,0,28,0,0,0,0,36,0,0,0,21,0,24,0
6,6614,2,VK3TRK,1.08,3,   boost,107.38,85780,1382.72,65.04,     NaN,42.5,8.42,8.39,4.12,0,10.59,0,135.14,135.62,0,0,0,0,    NaN,8.39,8.45,8.38,0,0,1,1,11,32.9430406,-106.9145738,1389,2022,6,23,19,5,48,2,2,74,0,1.6,1,1.2,0,31,0,0,34,36,0,0,0,0,33,23,0,0,19,0,0,28,0,28,0,0,0,0,36,0,0,0,21,0,24,0
6,6614,2,VK3TRK,1.09,3,   boost,105.42,85780,1382.72,65.04,     NaN,42.5,8.42,8.39,4.12,0,10.59,0,135.14,135.62,0,0,0,0,    NaN,8.39,8.45,8.38,0,0,1,1,11,32.9430406,-106.9145738,1389,2022,6,23,19,5,48,2,2,74,0,1.6,1,1.2,0,31,0,0,34,36,0,0,0,0,33,23,0,0,19,0,0,28,0,28,0,0,0,0,36,0,0,0,21,0,24,0
6,6614,2,VK3TRK,1.1,3,   boost,104.93,85774,1383.29,65.61,     NaN,42.5,8.42,8.39,4.12,0,10.59,0,135.14,135.62,0,0,0,0,    NaN,8.39,8.45,8.38,0,0,1,1,11,32.9430406,-106.9145738,1389,2022,6,23,19,5,48,2,2,74,0,1.6,1,1.2,0,31,0,0,34,36,0,0,0,0,33,23,0,0,19,0,0,28,0,28,0,0,0,0,36,0,0,0,21,0,24,0
6,6614,2,VK3TRK,1.11,3,   boost,105.42,85756,1385.01,67.33,     NaN,42.5,8.42,8.39,4.12,0,10.59,0,135.14,135.62,0,0,0,0,    NaN,8.39,8.45,8.38,0,0,1,1,11,32.9430406,-106.9145738,1389,2022,6,23,19,5,48,2,2,74,0,1.6,1,1.2,0,31,0,0,34,36,0,0,0,0,33,23,0,0,19,0,0,28,0,28,0,0,0,0,36,0,0,0,21,0,24,0
6,6614,2,VK3TRK,1.12,3,   boost,103.95,85742,1386.34,68.66,     NaN,42.5,8.42,8.39,4.12,0,10.59,0,135.14,135.62,0,0,0,0,    NaN,8.39,8.45,8.38,0,0,1,1,11,32.9430406,-106.9145738,1389,2022,6,23,19,5,48,2,2,74,0,1.6,1,1.2,0,31,0,0,34,36,0,0,0,0,33,23,0,0,19,0,0,28,0,28,0,0,0,0,36,0,0,0,21,0,24,0
6,6614,2,VK3TRK,1.13,3,   boost,104.44,85744,1386.15,68.47,     NaN,42.5,8.42,8.39,4.12,0,10.59,0,135.14,135.62,0,0,0,0,    NaN,8.39,8.45,8.38,0,0,1,1,11,32.9430406,-106.9145738,1389,2022,6,23,19,5,48,2,2,74,0,1.6,1,1.2,0,31,0,0,34,36,0,0,0,0,33,23,0,0,19,0,0,28,0,28,0,0,0,0,36,0,0,0,21,0,24,0
6,6614,2,VK3TRK,1.14,3,   boost,106.89,85720,1388.44,70.76,     NaN,42.5,8.42,8.39,4.12,0,10.59,0,135.14,135.62,0,0,0,0,    NaN,8.39,8.45,8.38,0,0,1,1,11,32.9430406,-106.9145738,1389,2022,6,23,19,5,48,2,2,74,0,1.6,1,1.2,0,31,0,0,34,36,0,0,0,0,33,23,0,0,19,0,0,28,0,28,0,0,0,0,36,0,0,0,21,0,24,0
6,6614,2,VK3TRK,1.15,3,   boost,107.87,85701,1390.25,72.57,     NaN,42.5,8.42,8.39,4.12,0,10.59,0,135.14,135.62,0,0,0,0,    NaN,8.39,8.45,8.38,0,0,1,1,11,32.9430406,-106.9145738,1389,2022,6,23,19,5,48,2,2,74,0,1.6,1,1.2,0,31,0,0,34,36,0,0,0,0,33,23,0,0,19,0,0,28,0,28,0,0,0,0,36,0,0,0,21,0,24,0
6,6614,2,VK3TRK,1.16,3,   boost,106.89,85687,1391.59,73.91,     NaN,42.5,8.42,8.39,4.12,0,10.59,0,135.14,135.62,0,0,0,0,    NaN,8.39,8.45,8.38,0,0,1,1,11,32.9430406,-106.9145738,1389,2022,6,23,19,5,48,2,2,74,0,1.6,1,1.2,0,31,0,0,34,36,0,0,0,0,33,23,0,0,19,0,0,28,0,28,0,0,0,0,36,0,0,0,21,0,24,0
6,6614,2,VK3TRK,1.17,3,   boost,105.91,85662,1393.97,76.29,     NaN,42.5,8.42,8.39,4.12,0,10.59,0,135.14,135.62,0,0,0,0,    NaN,8.39,8.45,8.38,0,0,1,1,11,32.9430406,-106.9145738,1389,2022,6,23,19,5,48,2,2,74,0,1.6,1,1.2,0,31,0,0,34,36,0,0,0,0,33,23,0,0,19,0,0,28,0,28,0,0,0,0,36,0,0,0,21,0,24,0
6,6614,2,VK3TRK,1.18,3,   boost,106.89,85679,1392.35,74.67,     NaN,42.5,8.42,8.39,4.12,0,10.59,0,135.14,135.62,0,0,0,0,    NaN,8.39,8.45,8.38,0,0,1,1,11,32.9430406,-106.9145738,1389,2022,6,23,19,5,48,2,2,74,0,1.6,1,1.2,0,31,0,0,34,36,0,0,0,0,33,23,0,0,19,0,0,28,0,28,0,0,0,0,36,0,0,0,21,0,24,0
6,6614,2,VK3TRK,1.19,3,   boost,105.91,85660,1394.16,76.48,     NaN,42.5,8.42,8.39,4.12,0,10.59,0,135.14,135.62,0,0,0,0,    NaN,8.39,8.45,8.38,0,0,1,1,11,32.9430406,-106.9145738,1389,2022,6,23,19,5,48,2,2,74,0,1.6,1,1.2,0,31,0,0,34,36,0,0,0,0,33,23,0,0,19,0,0,28,0,28,0,0,0,0,36,0,0,0,21,0,24,0
6,6614,2,VK3TRK,1.2,3,   boost,105.42,85639,1396.16,78.48,     NaN,42.5,8.42,8.39,4.12,0,10.59,0,135.14,135.62,0,0,0,0,    NaN,8.39,8.45,8.38,0,0,1,1,11,32.9430406,-106.9145738,1389,2022,6,23,19,5,48,2,2,74,0,1.6,1,1.2,0,31,0,0,34,36,0,0,0,0,33,23,0,0,19,0,0,28,0,28,0,0,0,0,36,0,0,0,21,0,24,0
6,6614,2,VK3TRK,1.21,3,   boost,107.38,85627,1397.31,79.63,     NaN,42.5,8.42,8.39,4.12,0,10.59,0,135.14,135.62,0,0,0,0,    NaN,8.39,8.45,8.38,0,0,1,1,11,32.9430406,-106.9145738,1389,2022,6,23,19,5,48,2,2,74,0,1.6,1,1.2,0,31,0,0,34,36,0,0,0,0,33,23,0,0,19,0,0,28,0,28,0,0,0,0,36,0,0,0,21,0,24,0
6,6614,2,VK3TRK,1.22,3,   boost,106.4,85607,1399.22,81.54,     NaN,42.5,8.42,8.39,4.12,0,10.59,0,135.14,135.62,0,0,0,0,    NaN,8.39,8.45,8.38,0,0,1,1,11,32.9430406,-106.9145738,1389,2022,6,23,19,5,48,2,2,74,0,1.6,1,1.2,0,31,0,0,34,36,0,0,0,0,33,23,0,0,19,0,0,28,0,28,0,0,0,0,36,0,0,0,21,0,24,0
6,6614,2,VK3TRK,1.23,3,   boost,103.95,85598,1400.07,82.4,     NaN,42.5,8.42,8.39,4.12,0,10.59,0,135.14,135.62,0,0,0,0,    NaN,8.39,8.45,8.38,0,0,1,1,11,32.9430406,-106.9145738,1389,2022,6,23,19,5,48,2,2,74,0,1.6,1,1.2,0,31,0,0,34,36,0,0,0,0,33,23,0,0,19,0,0,28,0,28,0,0,0,0,36,0,0,0,21,0,24,0
6,6614,2,VK3TRK,1.24,3,   boost,101.99,85593,1400.55,82.87,     NaN,42.5,8.42,8.39,4.12,0,10.59,0,135.14,135.62,0,0,0,0,    NaN,8.39,8.45,8.38,0,0,1,1,11,32.9430406,-106.9145738,1389,2022,6,23,19,5,48,2,2,74,0,1.6,1,1.2,0,31,0,0,34,36,0,0,0,0,33,23,0,0,19,0,0,28,0,28,0,0,0,0,36,0,0,0,21,0,24,0
6,6614,2,VK3TRK,1.25,3,   boost,104.93,85586,1401.22,83.54,     NaN,42.5,8.42,8.39,4.12,0,10.59,0,135.14,135.62,0,0,0,0,    NaN,8.39,8.45,8.38,0,0,1,1,11,32.9430406,-106.9145738,1389,2022,6,23,19,5,48,2,2,74,0,1.6,1,1.2,0,31,0,0,34,36,0,0,0,0,33,23,0,0,19,0,0,28,0,28,0,0,0,0,36,0,0,0,21,0,24,0
6,6614,2,VK3TRK,1.26,3,   boost,105.91,85548,1404.85,87.17,     NaN,42.5,8.42,8.39,4.12,0,10.59,0,135.14,135.62,0,0,0,0,    NaN,8.39,8.45,8.38,0,0,1,1,11,32.9430406,-106.9145738,1389,2022,6,23,19,5,48,2,2,74,0,1.6,1,1.2,0,31,0,0,34,36,0,0,0,0,33,23,0,0,19,0,0,28,0,28,0,0,0,0,36,0,0,0,21,0,24,0
6,6614,2,VK3TRK,1.27,3,   boost,106.4,85542,1405.42,87.74,     NaN,42.5,8.42,8.39,4.12,0,10.59,0,135.14,135.62,0,0,0,0,    NaN,8.39,8.45,8.38,0,0,1,1,11,32.9430406,-106.9145738,1389,2022,6,23,19,5,48,2,2,74,0,1.6,1,1.2,0,31,0,0,34,36,0,0,0,0,33,23,0,0,19,0,0,28,0,28,0,0,0,0,36,0,0,0,21,0,24,0
6,6614,2,VK3TRK,1.28,3,   boost,107.38,85530,1406.57,88.89,     NaN,42.5,8.42,8.39,4.12,0,10.59,0,135.14,135.62,0,0,0,0,    NaN,8.39,8.45,8.38,0,0,1,1,11,32.9430406,-106.9145738,1389,2022,6,23,19,5,48,2,2,74,0,1.6,1,1.2,0,31,0,0,34,36,0,0,0,0,33,23,0,0,19,0,0,28,0,28,0,0,0,0,36,0,0,0,21,0,24,0
6,6614,2,VK3TRK,1.29,3,   boost,106.89,85509,1408.57,90.89,     NaN,42.5,8.42,8.39,4.12,0,10.59,0,135.14,135.62,0,0,0,0,    NaN,8.39,8.45,8.38,0,0,1,1,11,32.9430406,-106.9145738,1389,2022,6,23,19,5,48,2,2,74,0,1.6,1,1.2,0,31,0,0,34,36,0,0,0,0,33,23,0,0,19,0,0,28,0,28,0,0,0,0,36,0,0,0,21,0,24,0
6,6614,2,VK3TRK,1.3,3,   boost,104.93,85512,1408.28,90.61,     NaN,42.5,8.43,8.4,4.13,0,10.59,0,135.14,135.62,0,0,0,0,    NaN,8.38,8.46,8.39,0,0,1,1,11,32.9430406,-106.9145738,1389,2022,6,23,19,5,48,2,2,74,0,1.6,1,1.2,0,31,0,0,34,36,0,0,0,0,33,23,0,0,19,0,0,28,0,28,0,0,0,0,36,0,0,0,21,0,24,0
